{"type":"FeatureCollection","features":[{"geometry":{"coordinates":[121.740475,25.13331389],"type":"Point"},"id":46694,"type":"Feature","properties":{"能見度觀測時間":"05至20時每3小時、09時","其他觀測時間":"00至24小時每15分鐘","所屬單位":"中央氣象局","地點":"基隆氣象站","測站屬性":"氣象站","測站ID":46694,"lon":121.740475,"URL":"","天氣觀測時間":"05至17時每1小時、17至20時每3小時","地址":"基隆市仁愛區港西街6號6樓(海港大樓)","觀測項目":"雨量+氣壓+氣溫+風速+風向+濕度+陣風+天氣+紫外線+能見度","高度":"26.7公尺","lat":25.13331389}},{"geometry":{"coordinates":[121.4489056,25.16488889],"type":"Point"},"id":46690,"type":"Feature","properties":{"能見度觀測時間":"","其他觀測時間":"","所屬單位":"中央氣象局","地點":"淡水氣象站","測站屬性":"氣象站","測站ID":46690,"lon":121.4489056,"URL":"","天氣觀測時間":"00至24小時每15分鐘","地址":"新北市淡水區中正東路42巷6號","觀測項目":"雨量+氣壓+氣溫+風速+風向+濕度+陣風","高度":"19公尺","lat":25.16488889}},{"geometry":{"coordinates":[121.4420167,24.99764722],"type":"Point"},"id":46688,"type":"Feature","properties":{"能見度觀測時間":"02時起每3小時","其他觀測時間":"00至24小時每15分鐘","所屬單位":"中央氣象局","地點":"板橋氣象站","測站屬性":"氣象站","測站ID":46688,"lon":121.4420167,"URL":"","天氣觀測時間":"02時起每3小時","地址":"新北市板橋區大觀路二段265巷62號","觀測項目":"雨量+氣壓+氣溫+風速+風向+濕度+陣風+天氣+能見度","高度":"11公尺","lat":24.99764722}},{"geometry":{"coordinates":[121.5445472,25.16207778],"type":"Point"},"id":46693,"type":"Feature","properties":{"能見度觀測時間":"05至20時每3小時","其他觀測時間":"00至24小時每15分鐘","所屬單位":"中央氣象局","地點":"竹子湖氣象站","測站屬性":"氣象站","測站ID":46693,"lon":121.5445472,"URL":"","天氣觀測時間":"05至20時每3小時","地址":"臺北市北投區陽明山竹子湖路2號","觀測項目":"雨量+氣壓+氣溫+風速+風向+濕度+陣風+天氣+能見度","高度":"607.1公尺","lat":25.16207778}},{"geometry":{"coordinates":[121.5297306,25.18258611],"type":"Point"},"id":46691,"type":"Feature","properties":{"能見度觀測時間":"05至20時每3小時","其他觀測時間":"00至24小時每15分鐘","所屬單位":"中央氣象局","地點":"鞍部氣象站","測站屬性":"氣象站","測站ID":46691,"lon":121.5297306,"URL":"","天氣觀測時間":"05至20時每3小時","地址":"臺北市北投區陽明山竹子湖路111號","觀測項目":"雨量+氣溫+風速+風向+濕度+陣風+天氣+紫外線+能見度","高度":"832.6公尺","lat":25.18258611}},{"geometry":{"coordinates":[121.0142194,24.82785278],"type":"Point"},"id":46757,"type":"Feature","properties":{"能見度觀測時間":"05至20時每3小時、09時","其他觀測時間":"00至24小時每15分鐘","所屬單位":"中央氣象局","地點":"新竹氣象站","測站屬性":"氣象站","測站ID":46757,"lon":121.0142194,"URL":"","天氣觀測時間":"05至17時每1小時、17至20時每3小時","地址":"新竹縣竹北市光明五街60號","觀測項目":"雨量+氣壓+氣溫+風速+風向+濕度+陣風+天氣+紫外線+能見度","高度":"26.9公尺","lat":24.82785278}},{"geometry":{"coordinates":[120.684075,24.14573611],"type":"Point"},"id":46749,"type":"Feature","properties":{"能見度觀測時間":"02時起每3小時、09時","其他觀測時間":"00至24小時每15分鐘","所屬單位":"中央氣象局","地點":"臺中氣象站","測站屬性":"氣象站","測站ID":46749,"lon":120.684075,"URL":"","天氣觀測時間":"02時起每3小時 (08至17時每1小時)","地址":"臺中市北區精武路295號","觀測項目":"雨量+氣壓+氣溫+風速+風向+濕度+陣風+天氣+紫外線+能見度","高度":"84公尺","lat":24.14573611}},{"geometry":{"coordinates":[120.5233806,24.25600278],"type":"Point"},"id":46777,"type":"Feature","properties":{"能見度觀測時間":"08至20時每3小時","其他觀測時間":"00至24小時每15分鐘","所屬單位":"中央氣象局","地點":"梧棲氣象站","測站屬性":"氣象站","測站ID":46777,"lon":120.5233806,"URL":"","天氣觀測時間":"08至20時每3小時","地址":"臺中市梧棲區臺灣大道十段2號6樓(海港大樓)","觀測項目":"雨量+氣壓+氣溫+風速+風向+濕度+陣風+天氣+能見度","高度":"7.2公尺","lat":24.25600278}},{"geometry":{"coordinates":[119.5630944,23.56550278],"type":"Point"},"id":46735,"type":"Feature","properties":{"能見度觀測時間":"05至20時每3小時、09時","其他觀測時間":"00至24小時每15分鐘","所屬單位":"中央氣象局","地點":"澎湖氣象站","測站屬性":"氣象站","測站ID":46735,"lon":119.5630944,"URL":"","天氣觀測時間":"05至17時每1小時、17至20時每3小時","地址":"澎湖縣馬公市新興路2號","觀測項目":"雨量+氣壓+氣溫+風速+風向+濕度+陣風+天氣+紫外線+能見度","高度":"10.7公尺","lat":23.56550278}},{"geometry":{"coordinates":[120.90805,23.881325],"type":"Point"},"id":46765,"type":"Feature","properties":{"能見度觀測時間":"05至20時每3小時","其他觀測時間":"00至24小時每15分鐘","所屬單位":"中央氣象局","地點":"日月潭氣象站","測站屬性":"氣象站","測站ID":46765,"lon":120.90805,"URL":"","天氣觀測時間":"05至20時每3小時","地址":"南投縣魚池鄉水社村中山路270巷14號","觀測項目":"雨量+氣溫+風速+風向+濕度+陣風+天氣+紫外線+能見度","高度":"1014.8公尺","lat":23.881325}},{"geometry":{"coordinates":[120.8132417,23.50820833],"type":"Point"},"id":46753,"type":"Feature","properties":{"能見度觀測時間":"05至20時每3小時","其他觀測時間":"00至24小時每15分鐘","所屬單位":"中央氣象局","地點":"阿里山氣象站","測站屬性":"氣象站","測站ID":46753,"lon":120.8132417,"URL":"","天氣觀測時間":"05至20時每3小時","地址":"嘉義縣阿里山鄉中正村4鄰東阿里山73-1號","觀測項目":"雨量+氣溫+風速+風向+濕度+陣風+天氣+能見度","高度":"2413.4公尺","lat":23.50820833}},{"geometry":{"coordinates":[120.9595222,23.48761389],"type":"Point"},"id":46755,"type":"Feature","properties":{"能見度觀測時間":"05至20時每3小時","其他觀測時間":"00至24小時每15分鐘","所屬單位":"中央氣象局","地點":"玉山氣象站","測站屬性":"氣象站","測站ID":46755,"lon":120.9595222,"URL":"","天氣觀測時間":"05至20時每3小時","地址":"南投縣信義鄉玉山北峰1號","觀測項目":"雨量+氣溫+風速+風向+濕度+陣風+天氣+紫外線+能見度","高度":"3844.8公尺","lat":23.48761389}},{"geometry":{"coordinates":[120.4329056,23.495925],"type":"Point"},"id":46748,"type":"Feature","properties":{"能見度觀測時間":"05至20時每3小時、09時","其他觀測時間":"00至24小時每15分鐘","所屬單位":"中央氣象局","地點":"嘉義氣象站","測站屬性":"氣象站","測站ID":46748,"lon":120.4329056,"URL":"","天氣觀測時間":"05至17時每1小時、17至20時每3小時","地址":"嘉義市西區北新里海口寮路56號","觀測項目":"雨量+氣壓+氣溫+風速+風向+濕度+陣風+天氣+紫外線+能見度","高度":"26.9公尺","lat":23.495925}},{"geometry":{"coordinates":[120.3157333,22.56599167],"type":"Point"},"id":46744,"type":"Feature","properties":{"能見度觀測時間":"05至20時每3小時、09時","其他觀測時間":"00至24小時每15分鐘","所屬單位":"中央氣象局","地點":"高雄氣象站","測站屬性":"氣象站","測站ID":46744,"lon":120.3157333,"URL":"","天氣觀測時間":"05至17時每1小時、17至20時每3小時","地址":"高雄市前鎮區漁港南二路2號","觀測項目":"雨量+氣壓+氣溫+風速+風向+濕度+陣風+天氣+紫外線+能見度","高度":"2.3公尺","lat":22.56599167}},{"geometry":{"coordinates":[120.7463389,22.00389722],"type":"Point"},"id":46759,"type":"Feature","properties":{"能見度觀測時間":"05至20時每3小時、09時","其他觀測時間":"00至24小時每15分鐘","所屬單位":"中央氣象局","地點":"恆春氣象站","測站屬性":"氣象站","測站ID":46759,"lon":120.7463389,"URL":"","天氣觀測時間":"05至17時每1小時、17至20時每3小時","地址":"屏東縣恆春鎮天文路50號","觀測項目":"雨量+氣壓+氣溫+風速+風向+濕度+陣風+天氣+紫外線+能見度","高度":"22.3公尺","lat":22.00389722}},{"geometry":{"coordinates":[121.7565278,24.763975],"type":"Point"},"id":46708,"type":"Feature","properties":{"能見度觀測時間":"05至20時每3小時、09時","其他觀測時間":"00至24小時每15分鐘","所屬單位":"中央氣象局","地點":"宜蘭氣象站","測站屬性":"氣象站","測站ID":46708,"lon":121.7565278,"URL":"","天氣觀測時間":"05至17時每1小時、17至20時每3小時","地址":"宜蘭縣宜蘭市力行路150號","觀測項目":"雨量+氣壓+氣溫+風速+風向+濕度+陣風+天氣+紫外線+能見度","高度":"7.4公尺","lat":24.763975}},{"geometry":{"coordinates":[121.8573722,24.59673611],"type":"Point"},"id":46706,"type":"Feature","properties":{"能見度觀測時間":"05至20時每3小時","其他觀測時間":"00至24小時每15分鐘","所屬單位":"中央氣象局","地點":"蘇澳氣象站","測站屬性":"氣象站","測站ID":46706,"lon":121.8573722,"URL":"","天氣觀測時間":"05至20時每3小時","地址":"宜蘭縣蘇澳鎮港區路1號6樓(蘇澳港行政大樓)","觀測項目":"雨量+氣壓+氣溫+風速+風向+濕度+陣風+天氣+能見度","高度":"24.9公尺","lat":24.59673611}},{"geometry":{"coordinates":[121.613275,23.97512778],"type":"Point"},"id":46699,"type":"Feature","properties":{"能見度觀測時間":"02時起每3小時、09時","其他觀測時間":"00至24小時每15分鐘","所屬單位":"中央氣象局","地點":"花蓮氣象站","測站屬性":"氣象站","測站ID":46699,"lon":121.613275,"URL":"","天氣觀測時間":"02時起每3小時 (08至17時每1小時)","地址":"花蓮縣花蓮市花崗街24號","觀測項目":"雨量+氣壓+氣溫+風速+風向+濕度+陣風+天氣+紫外線+能見度","高度":"16.1公尺","lat":23.97512778}},{"geometry":{"coordinates":[121.3734278,23.09748611],"type":"Point"},"id":46761,"type":"Feature","properties":{"能見度觀測時間":"","其他觀測時間":"","所屬單位":"中央氣象局","地點":"成功氣象站","測站屬性":"氣象站","測站ID":46761,"lon":121.3734278,"URL":"","天氣觀測時間":"00至24小時每15分鐘","地址":"臺東縣成功鎮公民路84號","觀測項目":"雨量+氣壓+氣溫+風速+風向+濕度+陣風+紫外線","高度":"33.3公尺","lat":23.09748611}},{"geometry":{"coordinates":[121.1545861,22.75221111],"type":"Point"},"id":46766,"type":"Feature","properties":{"能見度觀測時間":"02時起每3小時、09時","其他觀測時間":"00至24小時每15分鐘","所屬單位":"中央氣象局","地點":"臺東氣象站","測站屬性":"氣象站","測站ID":46766,"lon":121.1545861,"URL":"","天氣觀測時間":"02時起每3小時 (08至17時每1小時)","地址":"臺東縣臺東市大同路106號","觀測項目":"雨量+氣壓+氣溫+風速+風向+濕度+陣風+天氣+紫外線+能見度","高度":"9公尺","lat":22.75221111}},{"geometry":{"coordinates":[120.9037889,22.355675],"type":"Point"},"id":46754,"type":"Feature","properties":{"能見度觀測時間":"05至20時每3小時","其他觀測時間":"00至24小時每15分鐘","所屬單位":"中央氣象局","地點":"大武氣象站","測站屬性":"氣象站","測站ID":46754,"lon":120.9037889,"URL":"","天氣觀測時間":"05至20時每3小時","地址":"臺東縣大武鄉大武街115號","觀測項目":"雨量+氣壓+氣溫+風速+風向+濕度+陣風+天氣+能見度","高度":"8.1公尺","lat":22.355675}},{"geometry":{"coordinates":[121.5583389,22.03696944],"type":"Point"},"id":46762,"type":"Feature","properties":{"能見度觀測時間":"05至20時每3小時","其他觀測時間":"00至24小時每15分鐘","所屬單位":"中央氣象局","地點":"蘭嶼氣象站","測站屬性":"氣象站","測站ID":46762,"lon":121.5583389,"URL":"","天氣觀測時間":"05至20時每3小時","地址":"臺東縣蘭嶼鄉紅頭村2號","觀測項目":"雨量+氣壓+氣溫+風速+風向+濕度+陣風+天氣+紫外線+能見度","高度":"324公尺","lat":22.03696944}},{"geometry":{"coordinates":[122.0797444,25.627975],"type":"Point"},"id":46695,"type":"Feature","properties":{"能見度觀測時間":"05至20時每3小時","其他觀測時間":"00至24小時每15分鐘","所屬單位":"中央氣象局","地點":"彭佳嶼氣象站","測站屬性":"氣象站","測站ID":46695,"lon":122.0797444,"URL":"","天氣觀測時間":"05至20時每3小時","地址":"基隆市中正區彭佳嶼路2號","觀測項目":"雨量+氣壓+氣溫+風速+風向+濕度+陣風+天氣+能見度","高度":"99公尺","lat":25.627975}},{"geometry":{"coordinates":[119.6674667,23.25695],"type":"Point"},"id":46730,"type":"Feature","properties":{"能見度觀測時間":"08至17時每3小時","其他觀測時間":"00至24小時每15分鐘","所屬單位":"中央氣象局","地點":"東吉島氣象站","測站屬性":"氣象站","測站ID":46730,"lon":119.6674667,"URL":"","天氣觀測時間":"08至17時每3小時","地址":"澎湖縣望安鄉東吉村156號","觀測項目":"雨量+氣壓+氣溫+風速+風向+濕度+陣風+天氣+能見度","高度":"44.5公尺","lat":23.25695}},{"geometry":{"coordinates":[120.2367,23.03838611],"type":"Point"},"id":46742,"type":"Feature","properties":{"能見度觀測時間":"","其他觀測時間":"","所屬單位":"中央氣象局","地點":"永康氣象站","測站屬性":"氣象站","測站ID":46742,"lon":120.2367,"URL":"","天氣觀測時間":"00至24小時每15分鐘","地址":"臺南市永康區鹽行里正南五街520巷88號","觀測項目":"雨量+氣壓+氣溫+風速+風向+濕度+陣風","高度":"8.1公尺","lat":23.03838611}},{"geometry":{"coordinates":[118.433333,24.416667],"type":"Point"},"id":"A0W03","type":"Feature","properties":{"能見度觀測時間":"","其他觀測時間":"","所屬單位":"中央氣象局","地點":"金門(東)氣象站","測站屬性":"氣象站","測站ID":"A0W03","lon":118.433333,"URL":"","天氣觀測時間":"00至24小時每15分鐘","地址":"金門縣金湖鎮后壟村31號(金門農試所)","觀測項目":"雨量+氣溫+風速+風向+濕度+陣風","高度":"6公尺","lat":24.416667}},{"geometry":{"coordinates":[121.403914,24.690286],"type":"Point"},"id":"A0C54","type":"Feature","properties":{"能見度觀測時間":"","其他觀測時間":"","所屬單位":"中央氣象局","地點":"拉拉山氣象站","測站屬性":"氣象站","測站ID":"A0C54","lon":121.403914,"URL":"","天氣觀測時間":"00至24小時每15分鐘","地址":"桃園市復興區華陵村9鄰108-2號","觀測項目":"雨量+氣溫+風速+風向+濕度+陣風","高度":"1374公尺","lat":24.690286}},{"geometry":{"coordinates":[121.36,24.38],"type":"Point"},"id":"D2F23","type":"Feature","properties":{"能見度觀測時間":"","其他觀測時間":"","所屬單位":"中央氣象局","地點":"武陵氣象站","測站屬性":"氣象站","測站ID":"D2F23","lon":121.36,"URL":"","天氣觀測時間":"00至24小時每15分鐘","地址":"臺中市和平區平等村武陵路3號(武陵農場)","觀測項目":"雨量+氣溫+風速+風向+濕度+陣風","高度":"1734公尺","lat":24.38}},{"geometry":{"coordinates":[121.615,24.16],"type":"Point"},"id":"A0T78","type":"Feature","properties":{"能見度觀測時間":"","其他觀測時間":"","所屬單位":"中央氣象局","地點":"太魯閣氣象站","測站屬性":"氣象站","測站ID":"A0T78","lon":121.615,"URL":"","天氣觀測時間":"00至24小時每15分鐘","地址":"花蓮縣秀林鄉富世村291號","觀測項目":"雨量+氣溫+風速+風向+濕度+陣風","高度":"83.5公尺","lat":24.16}},{"geometry":{"coordinates":[121.5247,24.95903611],"type":"Point"},"id":"A0A9M","type":"Feature","properties":{"能見度觀測時間":"","其他觀測時間":"","所屬單位":"中央氣象局","地點":"新店氣象站","測站屬性":"氣象站","測站ID":"A0A9M","lon":121.5247,"URL":"","天氣觀測時間":"00至24小時每15分鐘","地址":"新北市新店區莒光路29號","觀測項目":"雨量+氣壓+氣溫+風速+風向+濕度+陣風","高度":"24.058公尺","lat":24.95903611}},{"geometry":{"coordinates":[121.514853,25.037658],"type":"Point"},"id":46692,"type":"Feature","properties":{"能見度觀測時間":"08至20時起每3小時、09時","其他觀測時間":"00至24小時每15分鐘","所屬單位":"中央氣象局","地點":"臺北氣象站","測站屬性":"氣象站","測站ID":46692,"lon":121.514853,"URL":"","天氣觀測時間":"08至17時每1小時、17至20時每3小時","地址":"臺北市中正區公園路64號","觀測項目":"雨量+氣壓+氣溫+風速+風向+濕度+陣風+天氣+紫外線+能見度","高度":"6.255公尺","lat":25.037658}},{"geometry":{"coordinates":[120.556667,24.081389],"type":"Point"},"id":"A0G72","type":"Feature","properties":{"能見度觀測時間":"","其他觀測時間":"","所屬單位":"中央氣象局","地點":"彰師大氣象站","測站屬性":"氣象站","測站ID":"A0G72","lon":120.556667,"URL":"","天氣觀測時間":"00至24小時每15分鐘","地址":"彰化縣彰化市進德路1號(地理系)","觀測項目":"雨量+氣溫+風速+風向+濕度+陣風","高度":"37公尺","lat":24.081389}},{"geometry":{"coordinates":[120.2047722,22.99323889],"type":"Point"},"id":46741,"type":"Feature","properties":{"能見度觀測時間":"02時起每3小時、09時","其他觀測時間":"00至24小時每15分鐘","所屬單位":"中央氣象局","地點":"臺南氣象站","測站屬性":"氣象站","測站ID":46741,"lon":120.2047722,"URL":"","天氣觀測時間":"02時起每3小時 (08至17時每1小時)","地址":"臺南市中西區公園路21號","觀測項目":"雨量+氣壓+氣溫+風速+風向+濕度+陣風+天氣+紫外線+能見度","高度":"13.8公尺","lat":22.99323889}},{"geometry":{"coordinates":[121.276394,24.144464],"type":"Point"},"id":"A0Z08","type":"Feature","properties":{"能見度觀測時間":"","其他觀測時間":"","所屬單位":"中央氣象局","地點":"合歡山氣象站","測站屬性":"氣象站","測站ID":"A0Z08","lon":121.276394,"URL":"","天氣觀測時間":"00至24小時每15分鐘","地址":"花蓮縣秀林鄉富世村關原33號(松雪樓)","觀測項目":"雨量+氣溫+風速+風向+濕度+陣風","高度":"3171公尺","lat":24.144464}},{"geometry":{"coordinates":[119.604189,23.740011],"type":"Point"},"id":"A0W08","type":"Feature","properties":{"能見度觀測時間":"","其他觀測時間":"","所屬單位":"中央氣象局","地點":"吉貝氣象站","測站屬性":"氣象站","測站ID":"A0W08","lon":119.604189,"URL":"","天氣觀測時間":"00至24小時每15分鐘","地址":"澎湖縣白沙鄉吉貝村182-2號(吉貝遊客中心)","觀測項目":"雨量+氣溫+風速+風向+濕度+陣風","高度":"3公尺","lat":23.740011}},{"geometry":{"coordinates":[116.73,20.700856],"type":"Point"},"id":46810,"type":"Feature","properties":{"能見度觀測時間":"00至24時每1小時","其他觀測時間":"00至24小時每15分鐘","所屬單位":"中央氣象局","地點":"東沙島氣象站","測站屬性":"氣象站","測站ID":46810,"lon":116.73,"URL":"","天氣觀測時間":"00至24時每1小時","地址":"高雄市旗津區東沙52號","觀測項目":"雨量+氣壓+氣溫+風速+風向+濕度+陣風+天氣+能見度","高度":"4公尺","lat":20.700856}},{"geometry":{"coordinates":[118.2892806,24.40730556],"type":"Point"},"id":46711,"type":"Feature","properties":{"能見度觀測時間":"05至20時每3小時","其他觀測時間":"00至24小時每15分鐘","所屬單位":"中央氣象局","地點":"金門氣象站","測站屬性":"氣象站","測站ID":46711,"lon":118.2892806,"URL":"","天氣觀測時間":"05至20時每3小時","地址":"金門縣金城鎮金水里西海路一段250號","觀測項目":"雨量+氣壓+氣溫+風速+風向+濕度+陣風+天氣+紫外線+能見度","高度":"48公尺","lat":24.40730556}},{"geometry":{"coordinates":[119.9234194,26.16926944],"type":"Point"},"id":46799,"type":"Feature","properties":{"能見度觀測時間":"05至20時每3小時","其他觀測時間":"00至24小時每15分鐘","所屬單位":"中央氣象局","地點":"馬祖氣象站","測站屬性":"氣象站","測站ID":46799,"lon":119.9234194,"URL":"","天氣觀測時間":"05至20時每3小時","地址":"連江縣南竿鄉四維村6鄰88號","觀測項目":"雨量+氣壓+氣溫+風速+風向+濕度+陣風+天氣+紫外線+能見度","高度":"97.842公尺","lat":26.16926944}},{"geometry":{"coordinates":[121.801147,25.113169],"type":"Point"},"id":"C0A66","type":"Feature","properties":{"能見度觀測時間":"","其他觀測時間":"","所屬單位":"中央氣象局","地點":"瑞芳氣象站","測站屬性":"氣象站","測站ID":"C0A66","lon":121.801147,"URL":"","天氣觀測時間":"00至24小時每1小時","地址":"新北市瑞芳區龍山里逢甲路360號(義方國小)","觀測項目":"雨量+氣溫+風速+風向+濕度+陣風","高度":"97公尺","lat":25.113169}},{"geometry":{"coordinates":[121.446756,25.051478],"type":"Point"},"id":"C0ACA","type":"Feature","properties":{"能見度觀測時間":"","其他觀測時間":"","所屬單位":"中央氣象局","地點":"新莊氣象站","測站屬性":"氣象站","測站ID":"C0ACA","lon":121.446756,"URL":"","天氣觀測時間":"00至24小時每1小時","地址":"新北市新莊區中和街193號(榮富國小)","觀測項目":"雨量+氣溫+風速+風向+濕度+陣風","高度":"25公尺","lat":25.051478}},{"geometry":{"coordinates":[121.662917,24.993969],"type":"Point"},"id":"C0A64","type":"Feature","properties":{"能見度觀測時間":"","其他觀測時間":"","所屬單位":"中央氣象局","地點":"石碇氣象站","測站屬性":"氣象站","測站ID":"C0A64","lon":121.662917,"URL":"","天氣觀測時間":"00至24小時每1小時","地址":"新北市石碇區湳窟34號附近","觀測項目":"雨量+氣溫+風速+風向+濕度+陣風","高度":"241公尺","lat":24.993969}},{"geometry":{"coordinates":[121.742892,25.002719],"type":"Point"},"id":"C0A65","type":"Feature","properties":{"能見度觀測時間":"","其他觀測時間":"","所屬單位":"中央氣象局","地點":"火燒寮氣象站","測站屬性":"氣象站","測站ID":"C0A65","lon":121.742892,"URL":"","天氣觀測時間":"00至24小時每1小時","地址":"新北市平溪區東勢里","觀測項目":"雨量+氣溫+風速+風向+濕度+陣風","高度":"287公尺","lat":25.002719}},{"geometry":{"coordinates":[121.575728,25.00235],"type":"Point"},"id":"C0AC8","type":"Feature","properties":{"能見度觀測時間":"","其他觀測時間":"","所屬單位":"中央氣象局","地點":"文山氣象站","測站屬性":"氣象站","測站ID":"C0AC8","lon":121.575728,"URL":"","天氣觀測時間":"00至24小時每1小時","地址":"臺北市文山區木柵路四段159巷14-1號(博嘉國小)","觀測項目":"雨量+氣溫+風速+風向+濕度+陣風","高度":"40公尺","lat":25.00235}},{"geometry":{"coordinates":[121.546333,24.922422],"type":"Point"},"id":"C0A58","type":"Feature","properties":{"能見度觀測時間":"","其他觀測時間":"","所屬單位":"中央氣象局","地點":"屈尺氣象站","測站屬性":"氣象站","測站ID":"C0A58","lon":121.546333,"URL":"","天氣觀測時間":"00至24小時每1小時","地址":"新北市新店區屈尺里10鄰屈尺路55號(屈尺國小)","觀測項目":"雨量+氣溫+風速+風向+濕度+陣風","高度":"70公尺","lat":24.922422}},{"geometry":{"coordinates":[121.402008,24.974944],"type":"Point"},"id":"C0A52","type":"Feature","properties":{"能見度觀測時間":"","其他觀測時間":"","所屬單位":"中央氣象局","地點":"山佳氣象站","測站屬性":"氣象站","測站ID":"C0A52","lon":121.402008,"URL":"","天氣觀測時間":"00至24小時每1小時","地址":"新北市樹林區中山路三段5號(山佳國小)","觀測項目":"雨量+氣溫+風速+風向+濕度+陣風","高度":"48公尺","lat":24.974944}},{"geometry":{"coordinates":[121.597992,24.848222],"type":"Point"},"id":"C0A57","type":"Feature","properties":{"能見度觀測時間":"","其他觀測時間":"","所屬單位":"中央氣象局","地點":"桶後氣象站","測站屬性":"氣象站","測站ID":"C0A57","lon":121.597992,"URL":"","天氣觀測時間":"00至24小時每1小時","地址":"新北市烏來區后桶街49號孝義里5K-6K","觀測項目":"雨量+氣溫+風速+風向+濕度+陣風","高度":"360公尺","lat":24.848222}},{"geometry":{"coordinates":[121.378217,25.076364],"type":"Point"},"id":"C0A71","type":"Feature","properties":{"能見度觀測時間":"","其他觀測時間":"","所屬單位":"中央氣象局","地點":"林口氣象站","測站屬性":"氣象站","測站ID":"C0A71","lon":121.378217,"URL":"","天氣觀測時間":"00至24小時每1小時","地址":"新北市林口區民治路25號(林口國中)","觀測項目":"雨量+氣溫+風速+風向+濕度+陣風","高度":"238公尺","lat":25.076364}},{"geometry":{"coordinates":[121.225958,25.04775],"type":"Point"},"id":"C0C54","type":"Feature","properties":{"能見度觀測時間":"","其他觀測時間":"","所屬單位":"中央氣象局","地點":"埔心氣象站","測站屬性":"氣象站","測站ID":"C0C54","lon":121.225958,"URL":"","天氣觀測時間":"00至24小時每1小時","地址":"桃園市大園區埔心里25鄰中正東路一段189巷35號(埔心國小)","觀測項目":"雨量+氣溫+風速+風向+濕度+陣風","高度":"70公尺","lat":25.04775}},{"geometry":{"coordinates":[121.323172,24.992425],"type":"Point"},"id":"C0C48","type":"Feature","properties":{"能見度觀測時間":"","其他觀測時間":"","所屬單位":"中央氣象局","地點":"桃園氣象站","測站屬性":"氣象站","測站ID":"C0C48","lon":121.323172,"URL":"","天氣觀測時間":"00至24小時每1小時","地址":"桃園市桃園區成功路二段144號(桃園農工)","觀測項目":"雨量+氣溫+風速+風向+濕度+陣風","高度":"105公尺","lat":24.992425}},{"geometry":{"coordinates":[121.283289,24.928708],"type":"Point"},"id":"C0C49","type":"Feature","properties":{"能見度觀測時間":"","其他觀測時間":"","所屬單位":"中央氣象局","地點":"八德氣象站","測站屬性":"氣象站","測站ID":"C0C49","lon":121.283289,"URL":"","天氣觀測時間":"00至24小時每1小時","地址":"桃園市八德區興仁里興豐路222號(八德國小)","觀測項目":"雨量+氣溫+風速+風向+濕度+陣風","高度":"157公尺","lat":24.928708}},{"geometry":{"coordinates":[121.173947,24.798228],"type":"Point"},"id":"C0D39","type":"Feature","properties":{"能見度觀測時間":"","其他觀測時間":"","所屬單位":"中央氣象局","地點":"關西氣象站","測站屬性":"氣象站","測站ID":"C0D39","lon":121.173947,"URL":"","天氣觀測時間":"00至24小時每1小時","地址":"新竹縣關西鎮北斗里北門口41號(關西國中)","觀測項目":"雨量+氣溫+風速+風向+濕度+陣風","高度":"146公尺","lat":24.798228}},{"geometry":{"coordinates":[121.017189,24.6905],"type":"Point"},"id":"C0D43","type":"Feature","properties":{"能見度觀測時間":"","其他觀測時間":"","所屬單位":"中央氣象局","地點":"峨眉氣象站","測站屬性":"氣象站","測站ID":"C0D43","lon":121.017189,"URL":"","天氣觀測時間":"00至24小時每1小時","地址":"新竹縣峨眉鄉峨眉村峨眉街54號(峨眉國中)","觀測項目":"雨量+氣溫+風速+風向+濕度+陣風","高度":"87公尺","lat":24.6905}},{"geometry":{"coordinates":[120.870872,24.414939],"type":"Point"},"id":"C0E52","type":"Feature","properties":{"能見度觀測時間":"","其他觀測時間":"","所屬單位":"中央氣象局","地點":"大湖氣象站","測站屬性":"氣象站","測站ID":"C0E52","lon":120.870872,"URL":"","天氣觀測時間":"00至24小時每1小時","地址":"苗栗縣大湖鄉大寮村5鄰竹高屋34-1號附近","觀測項目":"雨量+氣溫+風速+風向+濕度+陣風","高度":"320公尺","lat":24.414939}},{"geometry":{"coordinates":[120.783933,24.606489],"type":"Point"},"id":"C0E54","type":"Feature","properties":{"能見度觀測時間":"","其他觀測時間":"","所屬單位":"中央氣象局","地點":"後龍氣象站","測站屬性":"氣象站","測站ID":"C0E54","lon":120.783933,"URL":"","天氣觀測時間":"00至24小時每1小時","地址":"苗栗縣後龍鎮(後龍溪橋旁)","觀測項目":"雨量+氣溫+風速+風向+濕度+陣風","高度":"32公尺","lat":24.606489}},{"geometry":{"coordinates":[120.885411,24.583486],"type":"Point"},"id":"C0E55","type":"Feature","properties":{"能見度觀測時間":"","其他觀測時間":"","所屬單位":"中央氣象局","地點":"明德氣象站","測站屬性":"氣象站","測站ID":"C0E55","lon":120.885411,"URL":"","天氣觀測時間":"00至24小時每1小時","地址":"苗栗縣頭屋鄉(明德水庫水利工作站)","觀測項目":"雨量+氣溫+風速+風向+濕度+陣風","高度":"84公尺","lat":24.583486}},{"geometry":{"coordinates":[120.704622,24.471892],"type":"Point"},"id":"C0E59","type":"Feature","properties":{"能見度觀測時間":"","其他觀測時間":"","所屬單位":"中央氣象局","地點":"通霄氣象站","測站屬性":"氣象站","測站ID":"C0E59","lon":120.704622,"URL":"","天氣觀測時間":"00至24小時每1小時","地址":"苗栗縣通霄鎮城北里1鄰13號(城中國小)","觀測項目":"雨量+氣溫+風速+風向+濕度+陣風","高度":"40公尺","lat":24.471892}},{"geometry":{"coordinates":[121.150789,24.849664],"type":"Point"},"id":"C0D48","type":"Feature","properties":{"能見度觀測時間":"","其他觀測時間":"","所屬單位":"中央氣象局","地點":"打鐵坑氣象站","測站屬性":"氣象站","測站ID":"C0D48","lon":121.150789,"URL":"","天氣觀測時間":"00至24小時每1小時","地址":"新竹縣新埔鎮新北里8鄰大北坑28號","觀測項目":"雨量+氣溫+風速+風向+濕度+陣風","高度":"223公尺","lat":24.849664}},{"geometry":{"coordinates":[120.888897,24.708978],"type":"Point"},"id":"C0E42","type":"Feature","properties":{"能見度觀測時間":"","其他觀測時間":"","所屬單位":"中央氣象局","地點":"竹南氣象站","測站屬性":"氣象站","測站ID":"C0E42","lon":120.888897,"URL":"","天氣觀測時間":"00至24小時每1小時","地址":"苗栗縣竹南鎮大埔里仁愛路1092號(大埔國小)","觀測項目":"雨量+氣溫+風速+風向+濕度+陣風","高度":"19公尺","lat":24.708978}},{"geometry":{"coordinates":[121.000214,24.601775],"type":"Point"},"id":"C0E43","type":"Feature","properties":{"能見度觀測時間":"","其他觀測時間":"","所屬單位":"中央氣象局","地點":"南庄氣象站","測站屬性":"氣象站","測站ID":"C0E43","lon":121.000214,"URL":"","天氣觀測時間":"00至24小時每1小時","地址":"苗栗縣南庄鄉東村文化路3號(南庄國小)","觀測項目":"雨量+氣溫+風速+風向+濕度+陣風","高度":"258公尺","lat":24.601775}},{"geometry":{"coordinates":[121.208558,24.678347],"type":"Point"},"id":"C0D36","type":"Feature","properties":{"能見度觀測時間":"","其他觀測時間":"","所屬單位":"中央氣象局","地點":"梅花氣象站","測站屬性":"氣象站","測站ID":"C0D36","lon":121.208558,"URL":"","天氣觀測時間":"00至24小時每1小時","地址":"新竹縣尖石鄉梅花村1鄰11號(梅花國小)","觀測項目":"雨量+氣溫+風速+風向+濕度+陣風","高度":"523公尺","lat":24.678347}},{"geometry":{"coordinates":[120.930192,24.451272],"type":"Point"},"id":"C0E61","type":"Feature","properties":{"能見度觀測時間":"","其他觀測時間":"","所屬單位":"中央氣象局","地點":"馬都安氣象站","測站屬性":"氣象站","測站ID":"C0E61","lon":120.930192,"URL":"","天氣觀測時間":"00至24小時每1小時","地址":"苗栗縣泰安鄉錦水村(離泰安方向、瞭望台旁)","觀測項目":"雨量+氣溫+風速+風向+濕度+陣風","高度":"850公尺","lat":24.451272}},{"geometry":{"coordinates":[120.765972,24.410933],"type":"Point"},"id":"C0E53","type":"Feature","properties":{"能見度觀測時間":"","其他觀測時間":"","所屬單位":"中央氣象局","地點":"三義氣象站","測站屬性":"氣象站","測站ID":"C0E53","lon":120.765972,"URL":"","天氣觀測時間":"00至24小時每1小時","地址":"苗栗縣三義鄉廣盛村10鄰122號(三義高中)","觀測項目":"雨量+氣溫+風速+風向+濕度+陣風","高度":"341公尺","lat":24.410933}},{"geometry":{"coordinates":[120.640403,24.347667],"type":"Point"},"id":"C0F93","type":"Feature","properties":{"能見度觀測時間":"","其他觀測時間":"","所屬單位":"中央氣象局","地點":"大甲氣象站","測站屬性":"氣象站","測站ID":"C0F93","lon":120.640403,"URL":"","天氣觀測時間":"00至24小時每1小時","地址":"臺中市大甲區開元路71號(大甲高工)","觀測項目":"雨量+氣溫+風速+風向+濕度+陣風","高度":"100公尺","lat":24.347667}},{"geometry":{"coordinates":[120.833047,24.246428],"type":"Point"},"id":"C0F85","type":"Feature","properties":{"能見度觀測時間":"","其他觀測時間":"","所屬單位":"中央氣象局","地點":"東勢氣象站","測站屬性":"氣象站","測站ID":"C0F85","lon":120.833047,"URL":"","天氣觀測時間":"00至24小時每1小時","地址":"臺中市東勢區東關路647號(雙崎工作站)","觀測項目":"雨量+氣溫+風速+風向+濕度+陣風","高度":"379公尺","lat":24.246428}},{"geometry":{"coordinates":[120.770267,24.280117],"type":"Point"},"id":"C0F92","type":"Feature","properties":{"能見度觀測時間":"","其他觀測時間":"","所屬單位":"中央氣象局","地點":"石岡氣象站","測站屬性":"氣象站","測站ID":"C0F92","lon":120.770267,"URL":"","天氣觀測時間":"00至24小時每1小時","地址":"臺中市石岡區石岡里豐勢路1238號(石岡壩管理中心)","觀測項目":"雨量+氣溫+風速+風向+濕度+陣風","高度":"290公尺","lat":24.280117}},{"geometry":{"coordinates":[120.904267,24.288581],"type":"Point"},"id":"C0F90","type":"Feature","properties":{"能見度觀測時間":"","其他觀測時間":"","所屬單位":"中央氣象局","地點":"雙崎氣象站","測站屬性":"氣象站","測站ID":"C0F90","lon":120.904267,"URL":"","天氣觀測時間":"00至24小時每1小時","地址":"臺中市和平區自由里東崎路二段116號","觀測項目":"雨量+氣溫+風速+風向+濕度+陣風","高度":"535公尺","lat":24.288581}},{"geometry":{"coordinates":[121.243669,24.247522],"type":"Point"},"id":"C0F86","type":"Feature","properties":{"能見度觀測時間":"","其他觀測時間":"","所屬單位":"中央氣象局","地點":"梨山氣象站","測站屬性":"氣象站","測站ID":"C0F86","lon":121.243669,"URL":"","天氣觀測時間":"00至24小時每1小時","地址":"臺中市和平區梨山里福壽路29號(福壽山農場)","觀測項目":"雨量+氣溫+風速+風向+濕度+陣風","高度":"2215公尺","lat":24.247522}},{"geometry":{"coordinates":[121.272547,24.143442],"type":"Point"},"id":"C0H9C","type":"Feature","properties":{"能見度觀測時間":"","其他觀測時間":"","所屬單位":"中央氣象局","地點":"合歡山頂氣象站","測站屬性":"氣象站","測站ID":"C0H9C","lon":121.272547,"URL":"","天氣觀測時間":"00至24小時每1小時","地址":"南投縣仁愛鄉(大甲溪事業區81林班、合歡山三角點附近)","觀測項目":"雨量+氣溫+風速+風向+濕度+陣風","高度":"3402公尺","lat":24.143442}},{"geometry":{"coordinates":[120.582017,23.324361],"type":"Point"},"id":"C0M41","type":"Feature","properties":{"能見度觀測時間":"","其他觀測時間":"","所屬單位":"中央氣象局","地點":"馬頭山氣象站","測站屬性":"氣象站","測站ID":"C0M41","lon":120.582017,"URL":"","天氣觀測時間":"00至24小時每1小時","地址":"嘉義縣大埔鄉永樂村1鄰內灣仔2號","觀測項目":"雨量+氣溫+風速+風向+濕度+陣風","高度":"245公尺","lat":23.324361}},{"geometry":{"coordinates":[120.664664,23.260206],"type":"Point"},"id":"C0V15","type":"Feature","properties":{"能見度觀測時間":"","其他觀測時間":"","所屬單位":"中央氣象局","地點":"表湖氣象站","測站屬性":"氣象站","測站ID":"C0V15","lon":120.664664,"URL":"","天氣觀測時間":"00至24小時每1小時","地址":"高雄市那瑪夏區(曾文水庫表湖雨量站旁)","觀測項目":"雨量+氣溫+風速+風向+濕度+陣風","高度":"1163公尺","lat":23.260206}},{"geometry":{"coordinates":[120.297219,23.112883],"type":"Point"},"id":"C0O90","type":"Feature","properties":{"能見度觀測時間":"","其他觀測時間":"","所屬單位":"中央氣象局","地點":"善化氣象站","測站屬性":"氣象站","測站ID":"C0O90","lon":120.297219,"URL":"","天氣觀測時間":"00至24小時每1小時","地址":"臺南市善化區益民寮60號(亞洲蔬菜研究發展中心)","觀測項目":"雨量+氣溫+風速+風向+濕度+陣風","高度":"9公尺","lat":23.112883}},{"geometry":{"coordinates":[120.497328,23.219681],"type":"Point"},"id":"C0O81","type":"Feature","properties":{"能見度觀測時間":"","其他觀測時間":"","所屬單位":"中央氣象局","地點":"曾文氣象站","測站屬性":"氣象站","測站ID":"C0O81","lon":120.497328,"URL":"","天氣觀測時間":"00至24小時每1小時","地址":"臺南市楠西區曾文新村(曾文水庫管理局)","觀測項目":"雨量+氣溫+風速+風向+濕度+陣風","高度":"161公尺","lat":23.219681}},{"geometry":{"coordinates":[120.46055,23.126042],"type":"Point"},"id":"C0O93","type":"Feature","properties":{"能見度觀測時間":"","其他觀測時間":"","所屬單位":"中央氣象局","地點":"玉井氣象站","測站屬性":"氣象站","測站ID":"C0O93","lon":120.46055,"URL":"","天氣觀測時間":"00至24小時每1小時","地址":"臺南市玉井區(台糖玉井糖廠)","觀測項目":"雨量+氣溫+風速+風向+濕度+陣風","高度":"69公尺","lat":23.126042}},{"geometry":{"coordinates":[120.401947,22.893178],"type":"Point"},"id":"C0V37","type":"Feature","properties":{"能見度觀測時間":"","其他觀測時間":"","所屬單位":"中央氣象局","地點":"古亭坑氣象站","測站屬性":"氣象站","測站ID":"C0V37","lon":120.401947,"URL":"","天氣觀測時間":"00至24小時每1小時","地址":"高雄市田寮區古亭里","觀測項目":"雨量+氣溫+風速+風向+濕度+陣風","高度":"30公尺","lat":22.893178}},{"geometry":{"coordinates":[120.519153,22.898742],"type":"Point"},"id":"C0V31","type":"Feature","properties":{"能見度觀測時間":"","其他觀測時間":"","所屬單位":"中央氣象局","地點":"美濃氣象站","測站屬性":"氣象站","測站ID":"C0V31","lon":120.519153,"URL":"","天氣觀測時間":"00至24小時每1小時","地址":"高雄市美濃區福安里中山路二段204巷65號(美濃區福安國小後)","觀測項目":"雨量+氣溫+風速+風向+濕度+陣風","高度":"46公尺","lat":22.898742}},{"geometry":{"coordinates":[120.683889,22.833111],"type":"Point"},"id":"C0R10","type":"Feature","properties":{"能見度觀測時間":"","其他觀測時間":"","所屬單位":"中央氣象局","地點":"尾寮山氣象站","測站屬性":"氣象站","測站ID":"C0R10","lon":120.683889,"URL":"","天氣觀測時間":"00至24小時每1小時","地址":"屏東縣三地門鄉沙溪林道19.2K高處(尾寮山瞭望台旁)","觀測項目":"雨量+氣溫+風速+風向+濕度+陣風","高度":"1006公尺","lat":22.833111}},{"geometry":{"coordinates":[120.639944,22.709889],"type":"Point"},"id":"C0R15","type":"Feature","properties":{"能見度觀測時間":"","其他觀測時間":"","所屬單位":"中央氣象局","地點":"三地門氣象站","測站屬性":"氣象站","測站ID":"C0R15","lon":120.639944,"URL":"","天氣觀測時間":"00至24小時每1小時","地址":"屏東縣內埔鄉水門村成功路83號(國立內埔農工)","觀測項目":"雨量+氣溫+風速+風向+濕度+陣風","高度":"105公尺","lat":22.709889}},{"geometry":{"coordinates":[120.591758,23.080106],"type":"Point"},"id":"C0V25","type":"Feature","properties":{"能見度觀測時間":"","其他觀測時間":"","所屬單位":"中央氣象局","地點":"甲仙氣象站","測站屬性":"氣象站","測站ID":"C0V25","lon":120.591758,"URL":"","天氣觀測時間":"00至24小時每1小時","地址":"高雄市甲仙區(甲仙國中後山)","觀測項目":"雨量+氣溫+風速+風向+濕度+陣風","高度":"270公尺","lat":23.080106}},{"geometry":{"coordinates":[120.54,22.534361],"type":"Point"},"id":"C0R22","type":"Feature","properties":{"能見度觀測時間":"","其他觀測時間":"","所屬單位":"中央氣象局","地點":"潮州氣象站","測站屬性":"氣象站","測站ID":"C0R22","lon":120.54,"URL":"","天氣觀測時間":"00至24小時每1小時","地址":"屏東縣潮州鎮光春路290號(縣立光春國中)","觀測項目":"雨量+氣溫+風速+風向+濕度+陣風","高度":"23公尺","lat":22.534361}},{"geometry":{"coordinates":[120.749517,23.453994],"type":"Point"},"id":"C0M82","type":"Feature","properties":{"能見度觀測時間":"","其他觀測時間":"","所屬單位":"中央氣象局","地點":"達邦氣象站","測站屬性":"氣象站","測站ID":"C0M82","lon":120.749517,"URL":"","天氣觀測時間":"00至24小時每1小時","地址":"嘉義縣阿里山鄉達邦村21號(鄒族自然與文化中心)","觀測項目":"雨量+氣溫+風速+風向+濕度+陣風","高度":"980公尺","lat":23.453994}},{"geometry":{"coordinates":[120.664767,23.299075],"type":"Point"},"id":"C0M80","type":"Feature","properties":{"能見度觀測時間":"","其他觀測時間":"","所屬單位":"中央氣象局","地點":"茶山氣象站","測站屬性":"氣象站","測站ID":"C0M80","lon":120.664767,"URL":"","天氣觀測時間":"00至24小時每1小時","地址":"嘉義縣阿里山鄉茶山路62號之1(茶山村衛生室)","觀測項目":"雨量+氣溫+風速+風向+濕度+陣風","高度":"440公尺","lat":23.299075}},{"geometry":{"coordinates":[120.766406,23.884447],"type":"Point"},"id":"C0H95","type":"Feature","properties":{"能見度觀測時間":"","其他觀測時間":"","所屬單位":"中央氣象局","地點":"中寮氣象站","測站屬性":"氣象站","測站ID":"C0H95","lon":120.766406,"URL":"","天氣觀測時間":"00至24小時每1小時","地址":"南投縣中寮鄉復興村初中巷50號(中寮國中)","觀測項目":"雨量+氣溫+風速+風向+濕度+陣風","高度":"192公尺","lat":23.884447}},{"geometry":{"coordinates":[120.722289,24.173142],"type":"Point"},"id":"C0F97","type":"Feature","properties":{"能見度觀測時間":"","其他觀測時間":"","所屬單位":"中央氣象局","地點":"大坑氣象站","測站屬性":"氣象站","測站ID":"C0F97","lon":120.722289,"URL":"","天氣觀測時間":"00至24小時每1小時","地址":"臺中市北屯區軍福十三路268號(東山消防分隊)","觀測項目":"雨量+氣溫+風速+風向+濕度+陣風","高度":"145公尺","lat":24.173142}},{"geometry":{"coordinates":[120.6213,24.015678],"type":"Point"},"id":"C0G62","type":"Feature","properties":{"能見度觀測時間":"","其他觀測時間":"","所屬單位":"中央氣象局","地點":"芬園氣象站","測站屬性":"氣象站","測站ID":"C0G62","lon":120.6213,"URL":"","天氣觀測時間":"00至24小時每1小時","地址":"彰化縣芬園鄉楓坑村大埔崙產業道路(往台灣民俗村方向)","觀測項目":"雨量+氣溫+風速+風向+濕度+陣風","高度":"110公尺","lat":24.015678}},{"geometry":{"coordinates":[120.68085,23.973672],"type":"Point"},"id":"C0H96","type":"Feature","properties":{"能見度觀測時間":"","其他觀測時間":"","所屬單位":"中央氣象局","地點":"草屯氣象站","測站屬性":"氣象站","測站ID":"C0H96","lon":120.68085,"URL":"","天氣觀測時間":"00至24小時每1小時","地址":"南投縣草屯鎮中山里草鞋墩1街8號(草屯鎮公所)","觀測項目":"雨量+氣溫+風速+風向+濕度+陣風","高度":"120公尺","lat":23.973672}},{"geometry":{"coordinates":[120.843667,23.532742],"type":"Point"},"id":"C0H9A","type":"Feature","properties":{"能見度觀測時間":"","其他觀測時間":"","所屬單位":"中央氣象局","地點":"神木村氣象站","測站屬性":"氣象站","測站ID":"C0H9A","lon":120.843667,"URL":"","天氣觀測時間":"00至24小時每1小時","地址":"南投縣信義鄉神木村(對高岳營林區29林班444號、神木工作分站後山)","觀測項目":"雨量+氣溫+風速+風向+濕度+陣風","高度":"1595公尺","lat":23.532742}},{"geometry":{"coordinates":[120.479122,23.94835],"type":"Point"},"id":"C0G66","type":"Feature","properties":{"能見度觀測時間":"","其他觀測時間":"","所屬單位":"中央氣象局","地點":"溪湖氣象站","測站屬性":"氣象站","測站ID":"C0G66","lon":120.479122,"URL":"","天氣觀測時間":"00至24小時每1小時","地址":"彰化縣溪湖鎮大竹里彰水路二段725號(湖南國小)","觀測項目":"雨量+氣溫+風速+風向+濕度+陣風","高度":"27公尺","lat":23.94835}},{"geometry":{"coordinates":[120.62445,24.215281],"type":"Point"},"id":"C0F9X","type":"Feature","properties":{"能見度觀測時間":"","其他觀測時間":"","所屬單位":"中央氣象局","地點":"大雅氣象站","測站屬性":"氣象站","測站ID":"C0F9X","lon":120.62445,"URL":"","天氣觀測時間":"00至24小時每1小時","地址":"臺中市大雅區(中科臺中園區)","觀測項目":"雨量+氣溫+風速+風向+濕度+陣風","高度":"166公尺","lat":24.215281}},{"geometry":{"coordinates":[120.572117,24.15295],"type":"Point"},"id":"C0F00","type":"Feature","properties":{"能見度觀測時間":"","其他觀測時間":"","所屬單位":"中央氣象局","地點":"大肚氣象站","測站屬性":"氣象站","測站ID":"C0F00","lon":120.572117,"URL":"","天氣觀測時間":"00至24小時每1小時","地址":"臺中市大肚區瑞井里遊園路一段2號(監理所)","觀測項目":"雨量+氣溫+風速+風向+濕度+陣風","高度":"273公尺","lat":24.15295}},{"geometry":{"coordinates":[120.688156,23.761225],"type":"Point"},"id":"C0I11","type":"Feature","properties":{"能見度觀測時間":"","其他觀測時間":"","所屬單位":"中央氣象局","地點":"竹山氣象站","測站屬性":"氣象站","測站ID":"C0I11","lon":120.688156,"URL":"","天氣觀測時間":"00至24小時每1小時","地址":"南投縣竹山鎮延和里向學街32號(竹山國小)","觀測項目":"雨量+氣溫+風速+風向+濕度+陣風","高度":"161公尺","lat":23.761225}},{"geometry":{"coordinates":[120.693461,23.59555],"type":"Point"},"id":"C0K24","type":"Feature","properties":{"能見度觀測時間":"","其他觀測時間":"","所屬單位":"中央氣象局","地點":"草嶺氣象站","測站屬性":"氣象站","測站ID":"C0K24","lon":120.693461,"URL":"","天氣觀測時間":"00至24小時每1小時","地址":"雲林縣古坑鄉草嶺村龍頭","觀測項目":"雨量+氣溫+風速+風向+濕度+陣風","高度":"1132公尺","lat":23.59555}},{"geometry":{"coordinates":[120.787347,23.728081],"type":"Point"},"id":"C0I09","type":"Feature","properties":{"能見度觀測時間":"","其他觀測時間":"","所屬單位":"中央氣象局","地點":"鳳凰氣象站","測站屬性":"氣象站","測站ID":"C0I09","lon":120.787347,"URL":"","天氣觀測時間":"00至24小時每1小時","地址":"南投縣鹿谷鄉(鳳凰鳥園旁)","觀測項目":"雨量+氣溫+風速+風向+濕度+陣風","高度":"910公尺","lat":23.728081}},{"geometry":{"coordinates":[120.430481,24.0753],"type":"Point"},"id":"C0G64","type":"Feature","properties":{"能見度觀測時間":"","其他觀測時間":"","所屬單位":"中央氣象局","地點":"鹿港氣象站","測站屬性":"氣象站","測站ID":"C0G64","lon":120.430481,"URL":"","天氣觀測時間":"00至24小時每1小時","地址":"彰化縣鹿港鎮海埔里顏厝巷67號","觀測項目":"雨量+氣溫+風速+風向+濕度+陣風","高度":"17公尺","lat":24.0753}},{"geometry":{"coordinates":[120.585597,23.946503],"type":"Point"},"id":"C0G65","type":"Feature","properties":{"能見度觀測時間":"","其他觀測時間":"","所屬單位":"中央氣象局","地點":"員林氣象站","測站屬性":"氣象站","測站ID":"C0G65","lon":120.585597,"URL":"","天氣觀測時間":"00至24小時每1小時","地址":"彰化縣員林市萬年里明倫路2號(明倫國中)","觀測項目":"雨量+氣溫+風速+風向+濕度+陣風","高度":"34公尺","lat":23.946503}},{"geometry":{"coordinates":[121.273642,24.121322],"type":"Point"},"id":"C0H99","type":"Feature","properties":{"能見度觀測時間":"","其他觀測時間":"","所屬單位":"中央氣象局","地點":"昆陽氣象站","測站屬性":"氣象站","測站ID":"C0H99","lon":121.273642,"URL":"","天氣觀測時間":"00至24小時每1小時","地址":"南投縣仁愛鄉(昆陽警察局「太魯閣國家公園」石碑後)","觀測項目":"雨量+氣溫+風速+風向+濕度+陣風","高度":"3076公尺","lat":24.121322}},{"geometry":{"coordinates":[121.181808,24.033311],"type":"Point"},"id":"C0I01","type":"Feature","properties":{"能見度觀測時間":"","其他觀測時間":"","所屬單位":"中央氣象局","地點":"廬山氣象站","測站屬性":"氣象站","測站ID":"C0I01","lon":121.181808,"URL":"","天氣觀測時間":"00至24小時每1小時","地址":"南投縣仁愛鄉大同村仁和路21號","觀測項目":"雨量+氣溫+風速+風向+濕度+陣風","高度":"1562公尺","lat":24.033311}},{"geometry":{"coordinates":[120.477331,23.386047],"type":"Point"},"id":"C0X30","type":"Feature","properties":{"能見度觀測時間":"","其他觀測時間":"","所屬單位":"中央氣象局","地點":"鹿寮氣象站","測站屬性":"氣象站","測站ID":"C0X30","lon":120.477331,"URL":"","天氣觀測時間":"00至24小時每1小時","地址":"臺南市白河區崎內里12號(鹿寮水庫)","觀測項目":"雨量+氣溫+風速+風向+濕度+陣風","高度":"70公尺","lat":23.386047}},{"geometry":{"coordinates":[120.284911,22.674911],"type":"Point"},"id":"C0V81","type":"Feature","properties":{"能見度觀測時間":"","其他觀測時間":"","所屬單位":"中央氣象局","地點":"左營氣象站","測站屬性":"氣象站","測站ID":"C0V81","lon":120.284911,"URL":"","天氣觀測時間":"00至24小時每1小時","地址":"高雄市左營區左營大路1號(市立海青高工)","觀測項目":"雨量+氣溫+風速+風向+濕度+陣風","高度":"32公尺","lat":22.674911}},{"geometry":{"coordinates":[120.699253,23.493903],"type":"Point"},"id":"C0M53","type":"Feature","properties":{"能見度觀測時間":"","其他觀測時間":"","所屬單位":"中央氣象局","地點":"奮起湖氣象站","測站屬性":"氣象站","測站ID":"C0M53","lon":120.699253,"URL":"","天氣觀測時間":"00至24小時每1小時","地址":"嘉義縣竹崎鄉(阿里山事業區148林班、中興苗圃)","觀測項目":"雨量+氣溫+風速+風向+濕度+陣風","高度":"1385公尺","lat":23.493903}},{"geometry":{"coordinates":[120.442036,23.719183],"type":"Point"},"id":"C0K33","type":"Feature","properties":{"能見度觀測時間":"","其他觀測時間":"","所屬單位":"中央氣象局","地點":"虎尾氣象站","測站屬性":"氣象站","測站ID":"C0K33","lon":120.442036,"URL":"","天氣觀測時間":"00至24小時每1小時","地址":"雲林縣虎尾鎮林森路一段64號(中正國小)","觀測項目":"雨量+氣溫+風速+風向+濕度+陣風","高度":"38公尺","lat":23.719183}},{"geometry":{"coordinates":[120.227125,23.630414],"type":"Point"},"id":"C0K28","type":"Feature","properties":{"能見度觀測時間":"","其他觀測時間":"","所屬單位":"中央氣象局","地點":"四湖氣象站","測站屬性":"氣象站","測站ID":"C0K28","lon":120.227125,"URL":"","天氣觀測時間":"00至24小時每1小時","地址":"雲林縣四湖鄉湖西村中正路766號(四湖國中)","觀測項目":"雨量+氣溫+風速+風向+濕度+陣風","高度":"23公尺","lat":23.630414}},{"geometry":{"coordinates":[120.169311,23.536267],"type":"Point"},"id":"C0K29","type":"Feature","properties":{"能見度觀測時間":"","其他觀測時間":"","所屬單位":"中央氣象局","地點":"宜梧氣象站","測站屬性":"氣象站","測站ID":"C0K29","lon":120.169311,"URL":"","天氣觀測時間":"00至24小時每1小時","地址":"雲林縣口湖鄉湖口村170號(央廣口湖分台)","觀測項目":"雨量+氣溫+風速+風向+濕度+陣風","高度":"8公尺","lat":23.536267}},{"geometry":{"coordinates":[120.145086,23.173039],"type":"Point"},"id":"C0X08","type":"Feature","properties":{"能見度觀測時間":"","其他觀測時間":"","所屬單位":"中央氣象局","地點":"佳里氣象站","測站屬性":"氣象站","測站ID":"C0X08","lon":120.145086,"URL":"","天氣觀測時間":"00至24小時每1小時","地址":"臺南市佳里區(延平派出所附近)","觀測項目":"雨量+氣溫+風速+風向+濕度+陣風","高度":"2公尺","lat":23.173039}},{"geometry":{"coordinates":[121.565258,25.263783],"type":"Point"},"id":"C0A92","type":"Feature","properties":{"能見度觀測時間":"","其他觀測時間":"","所屬單位":"中央氣象局","地點":"富貴角氣象站","測站屬性":"氣象站","測站ID":"C0A92","lon":121.565258,"URL":"","天氣觀測時間":"00至24小時每1小時","地址":"新北市石門區山溪里10鄰九芎林13號(石門國小山溪分班附近)","觀測項目":"雨量+氣溫+風速+風向+濕度+陣風","高度":"196公尺","lat":25.263783}},{"geometry":{"coordinates":[121.923372,25.129036],"type":"Point"},"id":"C0A95","type":"Feature","properties":{"能見度觀測時間":"","其他觀測時間":"","所屬單位":"中央氣象局","地點":"鼻頭角氣象站","測站屬性":"氣象站","測站ID":"C0A95","lon":121.923372,"URL":"","天氣觀測時間":"00至24小時每1小時","地址":"新北市瑞芳區(鼻頭角燈塔旁)","觀測項目":"雨量+氣溫+風速+風向+濕度+陣風","高度":"118公尺","lat":25.129036}},{"geometry":{"coordinates":[121.632969,25.165914],"type":"Point"},"id":"C0A86","type":"Feature","properties":{"能見度觀測時間":"","其他觀測時間":"","所屬單位":"中央氣象局","地點":"大坪氣象站","測站屬性":"氣象站","測站ID":"C0A86","lon":121.632969,"URL":"","天氣觀測時間":"00至24小時每1小時","地址":"新北市萬里區溪底里香員林6-3號","觀測項目":"雨量+氣溫+風速+風向+濕度+陣風","高度":"362公尺","lat":25.165914}},{"geometry":{"coordinates":[121.608692,25.132153],"type":"Point"},"id":"C0A87","type":"Feature","properties":{"能見度觀測時間":"","其他觀測時間":"","所屬單位":"中央氣象局","地點":"五指山氣象站","測站屬性":"氣象站","測站ID":"C0A87","lon":121.608692,"URL":"","天氣觀測時間":"00至24小時每1小時","地址":"新北市汐止區(國軍示範公墓旁、復興廣播電臺前)","觀測項目":"雨量+氣溫+風速+風向+濕度+陣風","高度":"685公尺","lat":25.132153}},{"geometry":{"coordinates":[121.942083,25.017842],"type":"Point"},"id":"C0A88","type":"Feature","properties":{"能見度觀測時間":"","其他觀測時間":"","所屬單位":"中央氣象局","地點":"福隆氣象站","測站屬性":"氣象站","測站ID":"C0A88","lon":121.942083,"URL":"","天氣觀測時間":"00至24小時每1小時","地址":"新北市貢寮區(遊客中心後)","觀測項目":"雨量+氣溫+風速+風向+濕度+陣風","高度":"6公尺","lat":25.017842}},{"geometry":{"coordinates":[121.864242,25.036003],"type":"Point"},"id":"C0A89","type":"Feature","properties":{"能見度觀測時間":"","其他觀測時間":"","所屬單位":"中央氣象局","地點":"雙溪氣象站","測站屬性":"氣象站","測站ID":"C0A89","lon":121.864242,"URL":"","天氣觀測時間":"00至24小時每1小時","地址":"新北市雙溪區雙溪里(社區活動中心旁花圃)","觀測項目":"雨量+氣溫+風速+風向+濕度+陣風","高度":"40公尺","lat":25.036003}},{"geometry":{"coordinates":[121.595236,25.233153],"type":"Point"},"id":"C0A93","type":"Feature","properties":{"能見度觀測時間":"","其他觀測時間":"","所屬單位":"中央氣象局","地點":"三和氣象站","測站屬性":"氣象站","測站ID":"C0A93","lon":121.595236,"URL":"","天氣觀測時間":"00至24小時每1小時","地址":"新北市金山區(三和國小兩湖分校)","觀測項目":"雨量+氣溫+風速+風向+濕度+陣風","高度":"216公尺","lat":25.233153}},{"geometry":{"coordinates":[121.643967,25.223628],"type":"Point"},"id":"C0A94","type":"Feature","properties":{"能見度觀測時間":"","其他觀測時間":"","所屬單位":"中央氣象局","地點":"金山氣象站","測站屬性":"氣象站","測站ID":"C0A94","lon":121.643967,"URL":"","天氣觀測時間":"00至24小時每1小時","地址":"新北市金山區中興段404地號(磺港社區活動中心旁)","觀測項目":"雨量+氣溫+風速+風向+濕度+陣風","高度":"49公尺","lat":25.223628}},{"geometry":{"coordinates":[121.793544,24.632419],"type":"Point"},"id":"C0U68","type":"Feature","properties":{"能見度觀測時間":"","其他觀測時間":"","所屬單位":"中央氣象局","地點":"冬山氣象站","測站屬性":"氣象站","測站ID":"C0U68","lon":121.793544,"URL":"","天氣觀測時間":"00至24小時每1小時","地址":"宜蘭縣冬山鄉南興村照安路26號(冬山國中)","觀測項目":"雨量+氣溫+風速+風向","高度":"22公尺","lat":24.632419}},{"geometry":{"coordinates":[121.78965,24.743703],"type":"Point"},"id":"C0U62","type":"Feature","properties":{"能見度觀測時間":"","其他觀測時間":"","所屬單位":"中央氣象局","地點":"壯圍氣象站","測站屬性":"氣象站","測站ID":"C0U62","lon":121.78965,"URL":"","天氣觀測時間":"00至24小時每1小時","地址":"宜蘭縣壯圍鄉壯五路40號(壯圍國小)","觀測項目":"雨量+氣溫+風速+風向","高度":"17公尺","lat":24.743703}},{"geometry":{"coordinates":[121.641303,24.753033],"type":"Point"},"id":"C0U52","type":"Feature","properties":{"能見度觀測時間":"","其他觀測時間":"","所屬單位":"中央氣象局","地點":"雙連埤氣象站","測站屬性":"氣象站","測站ID":"C0U52","lon":121.641303,"URL":"","天氣觀測時間":"00至24小時每1小時","地址":"宜蘭縣員山鄉","觀測項目":"雨量+氣溫+風速+風向","高度":"517公尺","lat":24.753033}},{"geometry":{"coordinates":[122.002058,25.007606],"type":"Point"},"id":"C0A97","type":"Feature","properties":{"能見度觀測時間":"","其他觀測時間":"","所屬單位":"中央氣象局","地點":"三貂角氣象站","測站屬性":"氣象站","測站ID":"C0A97","lon":122.002058,"URL":"","天氣觀測時間":"00至24小時每1小時","地址":"新北市貢寮區(三貂角燈塔旁)","觀測項目":"雨量+氣溫+風速+風向","高度":"116公尺","lat":25.007606}},{"geometry":{"coordinates":[121.765608,24.817539],"type":"Point"},"id":"C0U60","type":"Feature","properties":{"能見度觀測時間":"","其他觀測時間":"","所屬單位":"中央氣象局","地點":"礁溪氣象站","測站屬性":"氣象站","測站ID":"C0U60","lon":121.765608,"URL":"","天氣觀測時間":"00至24小時每1小時","地址":"宜蘭縣礁溪鄉礁溪路四段23號(礁溪國中宿舍旁)","觀測項目":"雨量+氣溫+風速+風向","高度":"10公尺","lat":24.817539}},{"geometry":{"coordinates":[121.587061,24.675286],"type":"Point"},"id":"C0U65","type":"Feature","properties":{"能見度觀測時間":"","其他觀測時間":"","所屬單位":"中央氣象局","地點":"玉蘭氣象站","測站屬性":"氣象站","測站ID":"C0U65","lon":121.587061,"URL":"","天氣觀測時間":"00至24小時每1小時","地址":"宜蘭縣大同鄉松羅村鹿場路11號(松羅山頂瞭望亭旁)","觀測項目":"雨量+氣溫+風速+風向","高度":"494公尺","lat":24.675286}},{"geometry":{"coordinates":[121.525656,24.505486],"type":"Point"},"id":"C0U71","type":"Feature","properties":{"能見度觀測時間":"","其他觀測時間":"","所屬單位":"中央氣象局","地點":"太平山氣象站","測站屬性":"氣象站","測站ID":"C0U71","lon":121.525656,"URL":"","天氣觀測時間":"00至24小時每1小時","地址":"宜蘭縣大同鄉太平林道22.3K(太平山93林班)","觀測項目":"雨量+氣溫+風速+風向","高度":"1810公尺","lat":24.505486}},{"geometry":{"coordinates":[121.356664,24.397208],"type":"Point"},"id":"C0U73","type":"Feature","properties":{"能見度觀測時間":"","其他觀測時間":"","所屬單位":"中央氣象局","地點":"思源氣象站","測站屬性":"氣象站","測站ID":"C0U73","lon":121.356664,"URL":"","天氣觀測時間":"00至24小時每1小時","地址":"宜蘭縣大同鄉(大甲溪事業區40林班、思源啞口旁)","觀測項目":"雨量+氣溫+風速+風向","高度":"2036公尺","lat":24.397208}},{"geometry":{"coordinates":[121.441458,23.8119],"type":"Point"},"id":"C0T90","type":"Feature","properties":{"能見度觀測時間":"","其他觀測時間":"","所屬單位":"中央氣象局","地點":"西林氣象站","測站屬性":"氣象站","測站ID":"C0T90","lon":121.441458,"URL":"","天氣觀測時間":"00至24小時每1小時","地址":"花蓮縣萬榮鄉西林路8鄰114號(西林國小)","觀測項目":"雨量+氣溫+風速+風向","高度":"160公尺","lat":23.8119}},{"geometry":{"coordinates":[121.495639,24.179597],"type":"Point"},"id":"C0T82","type":"Feature","properties":{"能見度觀測時間":"","其他觀測時間":"","所屬單位":"中央氣象局","地點":"天祥氣象站","測站屬性":"氣象站","測站ID":"C0T82","lon":121.495639,"URL":"","天氣觀測時間":"00至24小時每1小時","地址":"花蓮縣秀林鄉(立霧溪事業區80林班、祥德寺)","觀測項目":"雨量+氣溫+風速+風向","高度":"550公尺","lat":24.179597}},{"geometry":{"coordinates":[121.609461,24.037928],"type":"Point"},"id":"C0T84","type":"Feature","properties":{"能見度觀測時間":"","其他觀測時間":"","所屬單位":"中央氣象局","地點":"新城氣象站","測站屬性":"氣象站","測站ID":"C0T84","lon":121.609461,"URL":"","天氣觀測時間":"00至24小時每1小時","地址":"花蓮縣新城鄉大漢村樹人街1號(大漢技術學院)","觀測項目":"雨量+氣溫+風速+風向","高度":"23公尺","lat":24.037928}},{"geometry":{"coordinates":[121.508944,23.935639],"type":"Point"},"id":"C0T87","type":"Feature","properties":{"能見度觀測時間":"","其他觀測時間":"","所屬單位":"中央氣象局","地點":"鯉魚潭氣象站","測站屬性":"氣象站","測站ID":"C0T87","lon":121.508944,"URL":"","天氣觀測時間":"00至24小時每1小時","地址":"花蓮縣壽豐鄉池南村池南路一段8號(鯉魚潭風景區旁)","觀測項目":"雨量+氣溫+風速+風向","高度":"135公尺","lat":23.935639}},{"geometry":{"coordinates":[121.424964,23.660694],"type":"Point"},"id":"C0T96","type":"Feature","properties":{"能見度觀測時間":"","其他觀測時間":"","所屬單位":"中央氣象局","地點":"光復氣象站","測站屬性":"氣象站","測站ID":"C0T96","lon":121.424964,"URL":"","天氣觀測時間":"00至24小時每1小時","地址":"花蓮縣光復鄉大進村糖廠街19號(花蓮光復糖廠)","觀測項目":"雨量+氣溫+風速+風向","高度":"120公尺","lat":23.660694}},{"geometry":{"coordinates":[121.303986,22.972672],"type":"Point"},"id":"C0S81","type":"Feature","properties":{"能見度觀測時間":"","其他觀測時間":"","所屬單位":"中央氣象局","地點":"東河氣象站","測站屬性":"氣象站","測站ID":"C0S81","lon":121.303986,"URL":"","天氣觀測時間":"00至24小時每1小時","地址":"臺東縣東河鄉北東河16鄰35號(東河國小)","觀測項目":"雨量+氣溫+風速+風向","高度":"65公尺","lat":22.972672}},{"geometry":{"coordinates":[121.411975,23.286817],"type":"Point"},"id":"C0S83","type":"Feature","properties":{"能見度觀測時間":"","其他觀測時間":"","所屬單位":"中央氣象局","地點":"長濱氣象站","測站屬性":"氣象站","測站ID":"C0S83","lon":121.411975,"URL":"","天氣觀測時間":"00至24小時每1小時","地址":"臺東縣長濱鄉竹湖村(移民橋後山三角點)","觀測項目":"雨量+氣溫+風速+風向","高度":"288公尺","lat":23.286817}},{"geometry":{"coordinates":[121.262342,23.208717],"type":"Point"},"id":"C0Z02","type":"Feature","properties":{"能見度觀測時間":"","其他觀測時間":"","所屬單位":"中央氣象局","地點":"明里氣象站","測站屬性":"氣象站","測站ID":"C0Z02","lon":121.262342,"URL":"","天氣觀測時間":"00至24小時每1小時","地址":"花蓮縣富里鄉明里村(明里社區後山)","觀測項目":"雨量+氣溫+風速+風向","高度":"211公尺","lat":23.208717}},{"geometry":{"coordinates":[121.039208,22.919814],"type":"Point"},"id":"C0S68","type":"Feature","properties":{"能見度觀測時間":"","其他觀測時間":"","所屬單位":"中央氣象局","地點":"紅葉山氣象站","測站屬性":"氣象站","測站ID":"C0S68","lon":121.039208,"URL":"","天氣觀測時間":"00至24小時每1小時","地址":"臺東縣延平鄉延平林道23K(紅葉山瞭望台旁)","觀測項目":"雨量+氣溫+風速+風向","高度":"1659公尺","lat":22.919814}},{"geometry":{"coordinates":[120.985328,22.609022],"type":"Point"},"id":"C0S69","type":"Feature","properties":{"能見度觀測時間":"","其他觀測時間":"","所屬單位":"中央氣象局","地點":"太麻里氣象站","測站屬性":"氣象站","測站ID":"C0S69","lon":120.985328,"URL":"","天氣觀測時間":"00至24小時每1小時","地址":"臺東縣太麻里鄉佳崙產業道路(往金針山茶區方向)","觀測項目":"雨量+氣溫+風速+風向","高度":"522公尺","lat":22.609022}},{"geometry":{"coordinates":[121.005644,22.684872],"type":"Point"},"id":"C0S70","type":"Feature","properties":{"能見度觀測時間":"","其他觀測時間":"","所屬單位":"中央氣象局","地點":"知本氣象站","測站屬性":"氣象站","測站ID":"C0S70","lon":121.005644,"URL":"","天氣觀測時間":"00至24小時每1小時","地址":"臺東縣卑南鄉溫泉村(溫泉國小樂山分校)","觀測項目":"雨量+氣溫+風速+風向","高度":"507公尺","lat":22.684872}},{"geometry":{"coordinates":[121.122994,22.917711],"type":"Point"},"id":"C0S71","type":"Feature","properties":{"能見度觀測時間":"","其他觀測時間":"","所屬單位":"中央氣象局","地點":"鹿野氣象站","測站屬性":"氣象站","測站ID":"C0S71","lon":121.122994,"URL":"","天氣觀測時間":"00至24小時每1小時","地址":"臺東縣鹿野鄉(鹿野高台高眺亭旁)","觀測項目":"雨量+氣溫+風速+風向","高度":"382公尺","lat":22.917711}},{"geometry":{"coordinates":[121.495028,23.455167],"type":"Point"},"id":"C0T9M","type":"Feature","properties":{"能見度觀測時間":"","其他觀測時間":"","所屬單位":"中央氣象局","地點":"靜浦氣象站","測站屬性":"氣象站","測站ID":"C0T9M","lon":121.495028,"URL":"","天氣觀測時間":"00至24小時每1小時","地址":"花蓮縣豐濱鄉靜浦村(活動中心後山)","觀測項目":"雨量+氣溫+風速+風向","高度":"92公尺","lat":23.455167}},{"geometry":{"coordinates":[121.475328,22.667203],"type":"Point"},"id":"C0S73","type":"Feature","properties":{"能見度觀測時間":"","其他觀測時間":"","所屬單位":"中央氣象局","地點":"綠島氣象站","測站屬性":"氣象站","測站ID":"C0S73","lon":121.475328,"URL":"","天氣觀測時間":"00至24小時每1小時","地址":"臺東縣綠島鄉","觀測項目":"雨量+氣溫+風速+風向","高度":"110公尺","lat":22.667203}},{"geometry":{"coordinates":[121.209469,23.119628],"type":"Point"},"id":"C0S74","type":"Feature","properties":{"能見度觀測時間":"","其他觀測時間":"","所屬單位":"中央氣象局","地點":"池上氣象站","測站屬性":"氣象站","測站ID":"C0S74","lon":121.209469,"URL":"","天氣觀測時間":"00至24小時每1小時","地址":"臺東縣池上鄉新興村104號(退輔會臺東農場)","觀測項目":"雨量+氣溫+風速+風向","高度":"289公尺","lat":23.119628}},{"geometry":{"coordinates":[120.986133,23.248397],"type":"Point"},"id":"C0S75","type":"Feature","properties":{"能見度觀測時間":"","其他觀測時間":"","所屬單位":"中央氣象局","地點":"向陽氣象站","測站屬性":"氣象站","測站ID":"C0S75","lon":120.986133,"URL":"","天氣觀測時間":"00至24小時每1小時","地址":"臺東縣海端鄉向陽工務段","觀測項目":"雨量+氣溫+風速+風向","高度":"2280公尺","lat":23.248397}},{"geometry":{"coordinates":[121.213236,23.345503],"type":"Point"},"id":"C0Z05","type":"Feature","properties":{"能見度觀測時間":"","其他觀測時間":"","所屬單位":"中央氣象局","地點":"佳心氣象站","測站屬性":"氣象站","測站ID":"C0Z05","lon":121.213236,"URL":"","天氣觀測時間":"00至24小時每1小時","地址":"花蓮縣卓溪鄉(南安遊客中心附近、日據時代派出所舊址)","觀測項目":"雨量+氣溫+風速+風向","高度":"704公尺","lat":23.345503}},{"geometry":{"coordinates":[121.339656,23.3215],"type":"Point"},"id":"C0Z06","type":"Feature","properties":{"能見度觀測時間":"","其他觀測時間":"","所屬單位":"中央氣象局","地點":"玉里氣象站","測站屬性":"氣象站","測站ID":"C0Z06","lon":121.339656,"URL":"","天氣觀測時間":"00至24小時每1小時","地址":"花蓮縣玉里鎮樂合里新民41號(樂合國小)","觀測項目":"雨量+氣溫+風速+風向","高度":"174公尺","lat":23.3215}},{"geometry":{"coordinates":[120.943325,22.478475],"type":"Point"},"id":"C0S77","type":"Feature","properties":{"能見度觀測時間":"","其他觀測時間":"","所屬單位":"中央氣象局","地點":"大溪山氣象站","測站屬性":"氣象站","測站ID":"C0S77","lon":120.943325,"URL":"","天氣觀測時間":"00至24小時每1小時","地址":"臺東縣太麻里鄉多良村(原中華電信轉播站旁)","觀測項目":"雨量+氣溫+風速+風向","高度":"375公尺","lat":22.478475}},{"geometry":{"coordinates":[121.374069,23.468114],"type":"Point"},"id":"C0Z07","type":"Feature","properties":{"能見度觀測時間":"","其他觀測時間":"","所屬單位":"中央氣象局","地點":"舞鶴氣象站","測站屬性":"氣象站","測站ID":"C0Z07","lon":121.374069,"URL":"","天氣觀測時間":"00至24小時每1小時","地址":"花蓮縣瑞穗鄉舞鶴村(加納納山三角點)","觀測項目":"雨量+氣溫+風速+風向","高度":"272公尺","lat":23.468114}},{"geometry":{"coordinates":[120.836794,22.076075],"type":"Point"},"id":"C0R28","type":"Feature","properties":{"能見度觀測時間":"","其他觀測時間":"","所屬單位":"中央氣象局","地點":"檳榔氣象站","測站屬性":"氣象站","測站ID":"C0R28","lon":120.836794,"URL":"","天氣觀測時間":"00至24小時每1小時","地址":"屏東縣滿州鄉長樂村大公路14號(往南仁山方向)","觀測項目":"雨量+氣溫+風速+風向","高度":"242公尺","lat":22.076075}},{"geometry":{"coordinates":[120.735817,21.921689],"type":"Point"},"id":"C0R35","type":"Feature","properties":{"能見度觀測時間":"","其他觀測時間":"","所屬單位":"中央氣象局","地點":"貓鼻頭氣象站","測站屬性":"氣象站","測站ID":"C0R35","lon":120.735817,"URL":"","天氣觀測時間":"00至24小時每1小時","地址":"屏東縣恆春鎮(貓鼻頭風景區)","觀測項目":"雨量+氣溫+風速+風向","高度":"35公尺","lat":21.921689}},{"geometry":{"coordinates":[120.362236,22.332244],"type":"Point"},"id":"C0R27","type":"Feature","properties":{"能見度觀測時間":"","其他觀測時間":"","所屬單位":"中央氣象局","地點":"琉球嶼氣象站","測站屬性":"氣象站","測站ID":"C0R27","lon":120.362236,"URL":"","天氣觀測時間":"00至24小時每1小時","地址":"屏東縣琉球鄉天台段596、597地號","觀測項目":"雨量+氣溫+風速+風向+濕度+陣風","高度":"51公尺","lat":22.332244}},{"geometry":{"coordinates":[120.802239,21.945631],"type":"Point"},"id":"C0R36","type":"Feature","properties":{"能見度觀測時間":"","其他觀測時間":"","所屬單位":"中央氣象局","地點":"墾丁氣象站","測站屬性":"氣象站","測站ID":"C0R36","lon":120.802239,"URL":"","天氣觀測時間":"00至24小時每1小時","地址":"屏東縣恆春鎮墾丁里牧場路1號(畜產試驗所恆春分所)","觀測項目":"雨量+氣溫+風速+風向","高度":"20公尺","lat":21.945631}},{"geometry":{"coordinates":[120.589639,22.369425],"type":"Point"},"id":"C0R38","type":"Feature","properties":{"能見度觀測時間":"","其他觀測時間":"","所屬單位":"中央氣象局","地點":"枋寮氣象站","測站屬性":"氣象站","測站ID":"C0R38","lon":120.589639,"URL":"","天氣觀測時間":"00至24小時每1小時","地址":"屏東縣枋寮鄉枋寮村德興路197號(枋寮國小)","觀測項目":"雨量+氣溫+風速+風向","高度":"2公尺","lat":22.369425}},{"geometry":{"coordinates":[120.692725,22.190197],"type":"Point"},"id":"C0R40","type":"Feature","properties":{"能見度觀測時間":"","其他觀測時間":"","所屬單位":"中央氣象局","地點":"楓港氣象站","測站屬性":"氣象站","測站ID":"C0R40","lon":120.692725,"URL":"","天氣觀測時間":"00至24小時每1小時","地址":"屏東縣枋山鄉善餘村光復路24號(楓港國小)","觀測項目":"雨量+氣溫+風速+風向","高度":"15公尺","lat":22.190197}},{"geometry":{"coordinates":[121.469681,25.109508],"type":"Point"},"id":"C0A98","type":"Feature","properties":{"能見度觀測時間":"","其他觀測時間":"","所屬單位":"中央氣象局","地點":"社子氣象站","測站屬性":"氣象站","測站ID":"C0A98","lon":121.469681,"URL":"","天氣觀測時間":"00至24小時每1小時","地址":"臺北市士林區延平北路九段212號(臺北海洋技術學院)","觀測項目":"雨量+氣溫+風速+風向+濕度+陣風","高度":"54公尺","lat":25.109508}},{"geometry":{"coordinates":[121.542853,25.078047],"type":"Point"},"id":"C0A9A","type":"Feature","properties":{"能見度觀測時間":"","其他觀測時間":"","所屬單位":"中央氣象局","地點":"大直氣象站","測站屬性":"氣象站","測站ID":"C0A9A","lon":121.542853,"URL":"","天氣觀測時間":"00至24小時每1小時","地址":"臺北市中山區北安路420號(大直高中)","觀測項目":"雨量+氣溫+風速+風向+濕度+陣風","高度":"49公尺","lat":25.078047}},{"geometry":{"coordinates":[121.513817,25.116342],"type":"Point"},"id":"C0A9B","type":"Feature","properties":{"能見度觀測時間":"","其他觀測時間":"","所屬單位":"中央氣象局","地點":"石牌氣象站","測站屬性":"氣象站","測站ID":"C0A9B","lon":121.513817,"URL":"","天氣觀測時間":"00至24小時每1小時","地址":"臺北市北投區石牌路一段139號(石牌國中)","觀測項目":"雨量+氣溫+風速+風向+濕度+陣風","高度":"7公尺","lat":25.116342}},{"geometry":{"coordinates":[121.537169,25.117494],"type":"Point"},"id":"C0A9C","type":"Feature","properties":{"能見度觀測時間":"","其他觀測時間":"","所屬單位":"中央氣象局","地點":"天母氣象站","測站屬性":"氣象站","測站ID":"C0A9C","lon":121.537169,"URL":"","天氣觀測時間":"00至24小時每1小時","地址":"臺北市士林區天母東路116號(三玉國小)","觀測項目":"雨量+氣溫+風速+風向+濕度+陣風","高度":"35公尺","lat":25.117494}},{"geometry":{"coordinates":[121.503019,25.090253],"type":"Point"},"id":"C0A9E","type":"Feature","properties":{"能見度觀測時間":"","其他觀測時間":"","所屬單位":"中央氣象局","地點":"士林氣象站","測站屬性":"氣象站","測站ID":"C0A9E","lon":121.503019,"URL":"","天氣觀測時間":"00至24小時每1小時","地址":"臺北市士林區延平北路六段308號(社子國小)","觀測項目":"雨量+氣溫+風速+風向+濕度+陣風","高度":"26公尺","lat":25.090253}},{"geometry":{"coordinates":[121.57545,25.079422],"type":"Point"},"id":"C0A9F","type":"Feature","properties":{"能見度觀測時間":"","其他觀測時間":"","所屬單位":"中央氣象局","地點":"內湖氣象站","測站屬性":"氣象站","測站ID":"C0A9F","lon":121.57545,"URL":"","天氣觀測時間":"00至24小時每1小時","地址":"臺北市內湖區內湖路一段520號(內湖高工)","觀測項目":"雨量+氣溫+風速+風向+濕度+陣風","高度":"35公尺","lat":25.079422}},{"geometry":{"coordinates":[121.602906,25.055431],"type":"Point"},"id":"C0A9G","type":"Feature","properties":{"能見度觀測時間":"","其他觀測時間":"","所屬單位":"中央氣象局","地點":"南港氣象站","測站屬性":"氣象站","測站ID":"C0A9G","lon":121.602906,"URL":"","天氣觀測時間":"00至24小時每1小時","地址":"臺北市南港區興南路62號(東新國小)","觀測項目":"雨量+氣溫+風速+風向+濕度+陣風","高度":"42公尺","lat":25.055431}},{"geometry":{"coordinates":[121.564597,25.037822],"type":"Point"},"id":"C0AC7","type":"Feature","properties":{"能見度觀測時間":"","其他觀測時間":"","所屬單位":"中央氣象局","地點":"信義氣象站","測站屬性":"氣象站","測站ID":"C0AC7","lon":121.564597,"URL":"","天氣觀測時間":"00至24小時每1小時","地址":"臺北市信義區市府路1號(臺北市政府)","觀測項目":"雨量+氣溫+風速+風向+濕度+陣風","高度":"71公尺","lat":25.037822}},{"geometry":{"coordinates":[121.488492,25.056667],"type":"Point"},"id":"C0A9I","type":"Feature","properties":{"能見度觀測時間":"","其他觀測時間":"","所屬單位":"中央氣象局","地點":"三重氣象站","測站屬性":"氣象站","測站ID":"C0A9I","lon":121.488492,"URL":"","天氣觀測時間":"00至24小時每1小時","地址":"新北市三重區集美街10號(集美國小)","觀測項目":"雨量+氣溫+風速+風向+濕度+陣風","高度":"18公尺","lat":25.056667}},{"geometry":{"coordinates":[120.840556,22.167792],"type":"Point"},"id":"C0R42","type":"Feature","properties":{"能見度觀測時間":"","其他觀測時間":"","所屬單位":"中央氣象局","地點":"牡丹池山氣象站","測站屬性":"氣象站","測站ID":"C0R42","lon":120.840556,"URL":"","天氣觀測時間":"00至24小時每1小時","地址":"屏東縣牡丹鄉(恆春事業區21林班、電信轉播台附近)","觀測項目":"雨量+氣溫+風速+風向","高度":"504公尺","lat":22.167792}},{"geometry":{"coordinates":[121.70975,24.938183],"type":"Point"},"id":"C0A53","type":"Feature","properties":{"能見度觀測時間":"","其他觀測時間":"","所屬單位":"中央氣象局","地點":"坪林氣象站","測站屬性":"氣象站","測站ID":"C0A53","lon":121.70975,"URL":"","天氣觀測時間":"00至24小時每1小時","地址":"新北市坪林區","觀測項目":"雨量+氣溫+風速+風向+濕度+陣風","高度":"300公尺","lat":24.938183}},{"geometry":{"coordinates":[121.745736,24.8926],"type":"Point"},"id":"C0A54","type":"Feature","properties":{"能見度觀測時間":"","其他觀測時間":"","所屬單位":"中央氣象局","地點":"四堵氣象站","測站屬性":"氣象站","測站ID":"C0A54","lon":121.745736,"URL":"","天氣觀測時間":"00至24小時每1小時","地址":"新北市坪林區北宜公路(碧湖橋附近)","觀測項目":"雨量+氣溫+風速+風向+濕度+陣風","高度":"401公尺","lat":24.8926}},{"geometry":{"coordinates":[121.823711,24.971197],"type":"Point"},"id":"C0A55","type":"Feature","properties":{"能見度觀測時間":"","其他觀測時間":"","所屬單位":"中央氣象局","地點":"泰平氣象站","測站屬性":"氣象站","測站ID":"C0A55","lon":121.823711,"URL":"","天氣觀測時間":"00至24小時每1小時","地址":"新北市雙溪區泰平里8鄰大平路43號(泰平國小分校附近)","觀測項目":"雨量+氣溫+風速+風向+濕度+陣風","高度":"460公尺","lat":24.971197}},{"geometry":{"coordinates":[121.369728,24.939025],"type":"Point"},"id":"C0AC6","type":"Feature","properties":{"能見度觀測時間":"","其他觀測時間":"","所屬單位":"中央氣象局","地點":"三峽氣象站","測站屬性":"氣象站","測站ID":"C0AC6","lon":121.369728,"URL":"","天氣觀測時間":"00至24小時每1小時","地址":"新北市三峽區復興路238號(三峽國中)","觀測項目":"雨量+氣溫+風速+風向+濕度+陣風","高度":"55公尺","lat":24.939025}},{"geometry":{"coordinates":[121.316086,24.186117],"type":"Point"},"id":"C0T79","type":"Feature","properties":{"能見度觀測時間":"","其他觀測時間":"","所屬單位":"中央氣象局","地點":"大禹嶺氣象站","測站屬性":"氣象站","測站ID":"C0T79","lon":121.316086,"URL":"","天氣觀測時間":"00至24小時每1小時","地址":"花蓮縣秀林鄉(立霧溪事業區67林班)","觀測項目":"雨量+氣溫+風速+風向+濕度+陣風","高度":"2830公尺","lat":24.186117}},{"geometry":{"coordinates":[121.539828,23.809928],"type":"Point"},"id":"C0T9A","type":"Feature","properties":{"能見度觀測時間":"","其他觀測時間":"","所屬單位":"中央氣象局","地點":"月眉山氣象站","測站屬性":"氣象站","測站ID":"C0T9A","lon":121.539828,"URL":"","天氣觀測時間":"00至24小時每1小時","地址":"花蓮縣壽豐鄉(月眉山附近)","觀測項目":"雨量+氣溫+風速+風向","高度":"498公尺","lat":23.809928}},{"geometry":{"coordinates":[121.537169,23.991861],"type":"Point"},"id":"C0T9B","type":"Feature","properties":{"能見度觀測時間":"","其他觀測時間":"","所屬單位":"中央氣象局","地點":"水源氣象站","測站屬性":"氣象站","測站ID":"C0T9B","lon":121.537169,"URL":"","天氣觀測時間":"00至24小時每1小時","地址":"花蓮縣秀林鄉原水源段(苗圃)","觀測項目":"雨量+氣溫+風速+風向","高度":"558公尺","lat":23.991861}},{"geometry":{"coordinates":[120.751061,24.103556],"type":"Point"},"id":"C0F9A","type":"Feature","properties":{"能見度觀測時間":"","其他觀測時間":"","所屬單位":"中央氣象局","地點":"中竹林氣象站","測站屬性":"氣象站","測站ID":"C0F9A","lon":120.751061,"URL":"","天氣觀測時間":"00至24小時每1小時","地址":"臺中市太平區長龍路(中埔二號橋附近)","觀測項目":"雨量+氣溫+風速+風向+濕度+陣風","高度":"425公尺","lat":24.103556}},{"geometry":{"coordinates":[120.851036,23.689694],"type":"Point"},"id":"C0I08","type":"Feature","properties":{"能見度觀測時間":"","其他觀測時間":"","所屬單位":"中央氣象局","地點":"信義氣象站","測站屬性":"氣象站","測站ID":"C0I08","lon":120.851036,"URL":"","天氣觀測時間":"00至24小時每1小時","地址":"南投縣信義鄉自強村綠美巷(內茅埔營林區23林班)","觀測項目":"雨量+氣溫+風速+風向+濕度+陣風","高度":"536公尺","lat":23.689694}},{"geometry":{"coordinates":[121.953133,24.841667],"type":"Point"},"id":"C0U75","type":"Feature","properties":{"能見度觀測時間":"","其他觀測時間":"","所屬單位":"中央氣象局","地點":"龜山島氣象站","測站屬性":"氣象站","測站ID":"C0U75","lon":121.953133,"URL":"","天氣觀測時間":"00至24小時每1小時","地址":"宜蘭縣頭城鎮(龜山島山頂401高地觀景台)","觀測項目":"雨量+氣溫+風速+風向","高度":"398公尺","lat":24.841667}},{"geometry":{"coordinates":[120.889208,22.279725],"type":"Point"},"id":"C0S84","type":"Feature","properties":{"能見度觀測時間":"","其他觀測時間":"","所屬單位":"中央氣象局","地點":"南田氣象站","測站屬性":"氣象站","測站ID":"C0S84","lon":120.889208,"URL":"","天氣觀測時間":"00至24小時每1小時","地址":"臺東縣達仁鄉南田村(南田風景區公園對面)","觀測項目":"雨量+氣溫+風速+風向","高度":"22公尺","lat":22.279725}},{"geometry":{"coordinates":[120.966875,22.538122],"type":"Point"},"id":"C0S79","type":"Feature","properties":{"能見度觀測時間":"","其他觀測時間":"","所屬單位":"中央氣象局","地點":"金崙氣象站","測站屬性":"氣象站","測站ID":"C0S79","lon":120.966875,"URL":"","天氣觀測時間":"00至24小時每1小時","地址":"臺東縣太麻里鄉金崙段304-1地號","觀測項目":"雨量+氣溫+風速+風向","高度":"236公尺","lat":22.538122}},{"geometry":{"coordinates":[121.419767,23.735794],"type":"Point"},"id":"C0T9G","type":"Feature","properties":{"能見度觀測時間":"","其他觀測時間":"","所屬單位":"中央氣象局","地點":"鳳林山氣象站","測站屬性":"氣象站","測站ID":"C0T9G","lon":121.419767,"URL":"","天氣觀測時間":"00至24小時每1小時","地址":"花蓮縣鳳林鎮","觀測項目":"雨量+氣溫+風速+風向","高度":"650公尺","lat":23.735794}},{"geometry":{"coordinates":[121.581981,23.880628],"type":"Point"},"id":"C0T9E","type":"Feature","properties":{"能見度觀測時間":"","其他觀測時間":"","所屬單位":"中央氣象局","地點":"大坑氣象站","測站屬性":"氣象站","測站ID":"C0T9E","lon":121.581981,"URL":"","天氣觀測時間":"00至24小時每1小時","地址":"花蓮縣壽豐鄉10鄰山嶺80-1號(中華電信賀田山機房旁)","觀測項目":"雨量+氣溫+風速+風向","高度":"415公尺","lat":23.880628}},{"geometry":{"coordinates":[121.5274,23.682947],"type":"Point"},"id":"C0T9H","type":"Feature","properties":{"能見度觀測時間":"","其他觀測時間":"","所屬單位":"中央氣象局","地點":"加路蘭山氣象站","測站屬性":"氣象站","測站ID":"C0T9H","lon":121.5274,"URL":"","天氣觀測時間":"00至24小時每1小時","地址":"花蓮縣豐濱鄉臨海段776-4地號(加路蘭山營區)","觀測項目":"雨量+氣溫+風速+風向","高度":"746公尺","lat":23.682947}},{"geometry":{"coordinates":[121.514303,23.584117],"type":"Point"},"id":"C0T9I","type":"Feature","properties":{"能見度觀測時間":"","其他觀測時間":"","所屬單位":"中央氣象局","地點":"豐濱氣象站","測站屬性":"氣象站","測站ID":"C0T9I","lon":121.514303,"URL":"","天氣觀測時間":"00至24小時每1小時","地址":"花蓮縣豐濱鄉豐濱村","觀測項目":"雨量+氣溫+風速+風向","高度":"214公尺","lat":23.584117}},{"geometry":{"coordinates":[121.542514,23.797131],"type":"Point"},"id":"C0T9F","type":"Feature","properties":{"能見度觀測時間":"","其他觀測時間":"","所屬單位":"中央氣象局","地點":"水璉氣象站","測站屬性":"氣象站","測站ID":"C0T9F","lon":121.542514,"URL":"","天氣觀測時間":"00至24小時每1小時","地址":"花蓮縣壽豐鄉水璉村","觀測項目":"雨量+氣溫+風速+風向","高度":"283公尺","lat":23.797131}},{"geometry":{"coordinates":[121.629633,24.148153],"type":"Point"},"id":"C0T9C","type":"Feature","properties":{"能見度觀測時間":"","其他觀測時間":"","所屬單位":"中央氣象局","地點":"富世氣象站","測站屬性":"氣象站","測站ID":"C0T9C","lon":121.629633,"URL":"","天氣觀測時間":"00至24小時每1小時","地址":"花蓮縣秀林鄉富世村127號(富世國小)","觀測項目":"雨量+氣溫+風速+風向","高度":"109公尺","lat":24.148153}},{"geometry":{"coordinates":[121.741261,24.266561],"type":"Point"},"id":"C0T9D","type":"Feature","properties":{"能見度觀測時間":"","其他觀測時間":"","所屬單位":"中央氣象局","地點":"和中氣象站","測站屬性":"氣象站","測站ID":"C0T9D","lon":121.741261,"URL":"","天氣觀測時間":"00至24小時每1小時","地址":"花蓮縣秀林鄉(和平國小和中分校)","觀測項目":"雨量+氣溫+風速+風向","高度":"7公尺","lat":24.266561}},{"geometry":{"coordinates":[121.833086,24.521928],"type":"Point"},"id":"C0U76","type":"Feature","properties":{"能見度觀測時間":"","其他觀測時間":"","所屬單位":"中央氣象局","地點":"東澳氣象站","測站屬性":"氣象站","測站ID":"C0U76","lon":121.833086,"URL":"","天氣觀測時間":"00至24小時每1小時","地址":"宜蘭縣南澳鄉東岳村蘇花路三段209號(東澳國小)","觀測項目":"雨量+氣溫+風速+風向","高度":"32公尺","lat":24.521928}},{"geometry":{"coordinates":[121.810219,24.449347],"type":"Point"},"id":"C0U77","type":"Feature","properties":{"能見度觀測時間":"","其他觀測時間":"","所屬單位":"中央氣象局","地點":"南澳氣象站","測站屬性":"氣象站","測站ID":"C0U77","lon":121.810219,"URL":"","天氣觀測時間":"00至24小時每1小時","地址":"宜蘭縣南澳鄉(南澳地震站)","觀測項目":"雨量+氣溫+風速+風向","高度":"5公尺","lat":24.449347}},{"geometry":{"coordinates":[121.522408,25.175675],"type":"Point"},"id":"C0AC4","type":"Feature","properties":{"能見度觀測時間":"","其他觀測時間":"","所屬單位":"中央氣象局","地點":"大屯山氣象站","測站屬性":"氣象站","測站ID":"C0AC4","lon":121.522408,"URL":"","天氣觀測時間":"00至24小時每1小時","地址":"臺北市北投區湖田段461-6地號(民航局大屯山助航臺)","觀測項目":"雨量+氣溫+風速+風向+濕度+陣風","高度":"1079公尺","lat":25.175675}},{"geometry":{"coordinates":[120.658314,24.272481],"type":"Point"},"id":"C0F9I","type":"Feature","properties":{"能見度觀測時間":"","其他觀測時間":"","所屬單位":"中央氣象局","地點":"神岡氣象站","測站屬性":"氣象站","測站ID":"C0F9I","lon":120.658314,"URL":"","天氣觀測時間":"00至24小時每1小時","地址":"臺中市神岡區三民路639號(圳堵國小)","觀測項目":"雨量+氣溫+風速+風向+濕度+陣風","高度":"194公尺","lat":24.272481}},{"geometry":{"coordinates":[120.844567,21.991953],"type":"Point"},"id":"C0R37","type":"Feature","properties":{"能見度觀測時間":"","其他觀測時間":"","所屬單位":"中央氣象局","地點":"佳樂水氣象站","測站屬性":"氣象站","測站ID":"C0R37","lon":120.844567,"URL":"","天氣觀測時間":"00至24小時每1小時","地址":"屏東縣滿州鄉港口村茶山路14號(佳樂山工作站)","觀測項目":"雨量+氣溫+風速+風向","高度":"55公尺","lat":21.991953}},{"geometry":{"coordinates":[121.502811,24.776203],"type":"Point"},"id":"C0A56","type":"Feature","properties":{"能見度觀測時間":"","其他觀測時間":"","所屬單位":"中央氣象局","地點":"福山氣象站","測站屬性":"氣象站","測站ID":"C0A56","lon":121.502811,"URL":"","天氣觀測時間":"00至24小時每1小時","地址":"新北市烏來區福山里李茂岸8號(福山國小旁)","觀測項目":"雨量+氣溫+風速+風向+濕度+陣風","高度":"405公尺","lat":24.776203}},{"geometry":{"coordinates":[120.977211,24.870678],"type":"Point"},"id":"C0D59","type":"Feature","properties":{"能見度觀測時間":"","其他觀測時間":"","所屬單位":"中央氣象局","地點":"新豐氣象站","測站屬性":"氣象站","測站ID":"C0D59","lon":120.977211,"URL":"","天氣觀測時間":"00至24小時每1小時","地址":"新竹縣新豐鄉上坑村坑子口102-1號(小叮噹科學遊樂區)","觀測項目":"雨量+氣溫+風速+風向+濕度+陣風","高度":"143公尺","lat":24.870678}},{"geometry":{"coordinates":[121.153317,25.027072],"type":"Point"},"id":"C0C59","type":"Feature","properties":{"能見度觀測時間":"","其他觀測時間":"","所屬單位":"中央氣象局","地點":"觀音氣象站","測站屬性":"氣象站","測站ID":"C0C59","lon":121.153317,"URL":"","天氣觀測時間":"00至24小時每1小時","地址":"桃園市觀音區廣福里10-42號(逸福農場)","觀測項目":"雨量+氣溫+風速+風向+濕度+陣風","高度":"29公尺","lat":25.027072}},{"geometry":{"coordinates":[121.352281,24.820208],"type":"Point"},"id":"C0C46","type":"Feature","properties":{"能見度觀測時間":"","其他觀測時間":"","所屬單位":"中央氣象局","地點":"復興氣象站","測站屬性":"氣象站","測站ID":"C0C46","lon":121.352281,"URL":"","天氣觀測時間":"00至24小時每1小時","地址":"桃園市復興區澤仁里中正路248號(介壽國中)","觀測項目":"雨量+氣溫+風速+風向+濕度+陣風","高度":"482公尺","lat":24.820208}},{"geometry":{"coordinates":[121.116933,24.711158],"type":"Point"},"id":"C0D54","type":"Feature","properties":{"能見度觀測時間":"","其他觀測時間":"","所屬單位":"中央氣象局","地點":"橫山氣象站","測站屬性":"氣象站","測站ID":"C0D54","lon":121.116933,"URL":"","天氣觀測時間":"00至24小時每1小時","地址":"新竹縣橫山鄉橫山村橫山段426-6地號","觀測項目":"雨量+氣溫+風速+風向+濕度+陣風","高度":"227公尺","lat":24.711158}},{"geometry":{"coordinates":[121.11605,24.526972],"type":"Point"},"id":"C0D55","type":"Feature","properties":{"能見度觀測時間":"","其他觀測時間":"","所屬單位":"中央氣象局","地點":"雪霸氣象站","測站屬性":"氣象站","測站ID":"C0D55","lon":121.11605,"URL":"","天氣觀測時間":"00至24小時每1小時","地址":"新竹縣五峰鄉桃山村民石380號(雪霸農場)","觀測項目":"雨量+氣溫+風速+風向+濕度+陣風","高度":"1956公尺","lat":24.526972}},{"geometry":{"coordinates":[121.057881,24.767147],"type":"Point"},"id":"C0D56","type":"Feature","properties":{"能見度觀測時間":"","其他觀測時間":"","所屬單位":"中央氣象局","地點":"竹東氣象站","測站屬性":"氣象站","測站ID":"C0D56","lon":121.057881,"URL":"","天氣觀測時間":"00至24小時每1小時","地址":"新竹縣竹東鎮(二重國小)","觀測項目":"雨量+氣溫+風速+風向+濕度+陣風","高度":"147公尺","lat":24.767147}},{"geometry":{"coordinates":[121.265767,25.084275],"type":"Point"},"id":"C0C62","type":"Feature","properties":{"能見度觀測時間":"","其他觀測時間":"","所屬單位":"中央氣象局","地點":"蘆竹氣象站","測站屬性":"氣象站","測站ID":"C0C62","lon":121.265767,"URL":"","天氣觀測時間":"00至24小時每1小時","地址":"桃園市蘆竹區坑口里14鄰","觀測項目":"雨量+氣溫+風速+風向+濕度+陣風","高度":"19公尺","lat":25.084275}},{"geometry":{"coordinates":[121.185253,24.967564],"type":"Point"},"id":"C0C52","type":"Feature","properties":{"能見度觀測時間":"","其他觀測時間":"","所屬單位":"中央氣象局","地點":"中壢氣象站","測站屬性":"氣象站","測站ID":"C0C52","lon":121.185253,"URL":"","天氣觀測時間":"00至24小時每1小時","地址":"桃園市中壢區五權里(中央大學)","觀測項目":"雨量+氣溫+風速+風向+濕度+陣風","高度":"151公尺","lat":24.967564}},{"geometry":{"coordinates":[120.905456,24.746892],"type":"Point"},"id":"C0D57","type":"Feature","properties":{"能見度觀測時間":"","其他觀測時間":"","所屬單位":"中央氣象局","地點":"香山氣象站","測站屬性":"氣象站","測站ID":"C0D57","lon":120.905456,"URL":"","天氣觀測時間":"00至24小時每1小時","地址":"新竹市香山區長興路500巷17弄6號","觀測項目":"雨量+氣溫+風速+風向+濕度+陣風","高度":"15公尺","lat":24.746892}},{"geometry":{"coordinates":[121.214636,24.897503],"type":"Point"},"id":"C0C65","type":"Feature","properties":{"能見度觀測時間":"","其他觀測時間":"","所屬單位":"中央氣象局","地點":"平鎮氣象站","測站屬性":"氣象站","測站ID":"C0C65","lon":121.214636,"URL":"","天氣觀測時間":"00至24小時每1小時","地址":"桃園市平鎮區中豐路山頂段375巷45號(山豐國小)","觀測項目":"雨量+氣溫+風速+風向+濕度+陣風","高度":"208公尺","lat":24.897503}},{"geometry":{"coordinates":[121.265547,24.882853],"type":"Point"},"id":"C0C63","type":"Feature","properties":{"能見度觀測時間":"","其他觀測時間":"","所屬單位":"中央氣象局","地點":"大溪氣象站","測站屬性":"氣象站","測站ID":"C0C63","lon":121.265547,"URL":"","天氣觀測時間":"00至24小時每1小時","地址":"桃園市大溪區員林路二段450號(員樹林國小)","觀測項目":"雨量+氣溫+風速+風向+濕度+陣風","高度":"209公尺","lat":24.882853}},{"geometry":{"coordinates":[121.375719,25.030306],"type":"Point"},"id":"C0C64","type":"Feature","properties":{"能見度觀測時間":"","其他觀測時間":"","所屬單位":"中央氣象局","地點":"龜山氣象站","測站屬性":"氣象站","測站ID":"C0C64","lon":121.375719,"URL":"","天氣觀測時間":"00至24小時每1小時","地址":"桃園市龜山區舊路里振興路1169號(大埔國小)","觀測項目":"雨量+氣溫+風速+風向+濕度+陣風","高度":"177公尺","lat":25.030306}},{"geometry":{"coordinates":[121.025192,24.735006],"type":"Point"},"id":"C0D58","type":"Feature","properties":{"能見度觀測時間":"","其他觀測時間":"","所屬單位":"中央氣象局","地點":"寶山氣象站","測站屬性":"氣象站","測站ID":"C0D58","lon":121.025192,"URL":"","天氣觀測時間":"00至24小時每1小時","地址":"新竹縣寶山鄉新湖路280號","觀測項目":"雨量+氣溫+風速+風向+濕度+陣風","高度":"120公尺","lat":24.735006}},{"geometry":{"coordinates":[120.912206,24.688247],"type":"Point"},"id":"C0E73","type":"Feature","properties":{"能見度觀測時間":"","其他觀測時間":"","所屬單位":"中央氣象局","地點":"頭份氣象站","測站屬性":"氣象站","測站ID":"C0E73","lon":120.912206,"URL":"","天氣觀測時間":"00至24小時每1小時","地址":"苗栗縣頭份市中正路219號(頭份國小)","觀測項目":"雨量+氣溫+風速+風向+濕度+陣風","高度":"26公尺","lat":24.688247}},{"geometry":{"coordinates":[120.441692,22.464914],"type":"Point"},"id":"C0R43","type":"Feature","properties":{"能見度觀測時間":"","其他觀測時間":"","所屬單位":"中央氣象局","地點":"東港氣象站","測站屬性":"氣象站","測站ID":"C0R43","lon":120.441692,"URL":"","天氣觀測時間":"00至24小時每1小時","地址":"屏東縣東港鎮豐漁街66號(國立東水)","觀測項目":"雨量+氣溫+風速+風向+濕度+陣風","高度":"31公尺","lat":22.464914}},{"geometry":{"coordinates":[121.501917,25.258131],"type":"Point"},"id":"C0AD0","type":"Feature","properties":{"能見度觀測時間":"","其他觀測時間":"","所屬單位":"中央氣象局","地點":"三芝氣象站","測站屬性":"氣象站","測站ID":"C0AD0","lon":121.501917,"URL":"","天氣觀測時間":"00至24小時每1小時","地址":"新北市三芝區育英路22號(三芝國小)","觀測項目":"雨量+氣溫+風速+風向+濕度+陣風","高度":"86公尺","lat":25.258131}},{"geometry":{"coordinates":[121.403947,25.150211],"type":"Point"},"id":"C0AD1","type":"Feature","properties":{"能見度觀測時間":"","其他觀測時間":"","所屬單位":"中央氣象局","地點":"八里氣象站","測站屬性":"氣象站","測站ID":"C0AD1","lon":121.403947,"URL":"","天氣觀測時間":"00至24小時每1小時","地址":"新北市八里區中山路二段338號(八里國小)","觀測項目":"雨量+氣溫+風速+風向+濕度+陣風","高度":"27公尺","lat":25.150211}},{"geometry":{"coordinates":[121.617556,25.001381],"type":"Point"},"id":"C0AD2","type":"Feature","properties":{"能見度觀測時間":"","其他觀測時間":"","所屬單位":"中央氣象局","地點":"深坑氣象站","測站屬性":"氣象站","測站ID":"C0AD2","lon":121.617556,"URL":"","天氣觀測時間":"00至24小時每1小時","地址":"新北市深坑區文化街45號(深坑國小)","觀測項目":"雨量+氣溫+風速+風向+濕度+陣風","高度":"57公尺","lat":25.001381}},{"geometry":{"coordinates":[121.472331,25.086594],"type":"Point"},"id":"C0AD3","type":"Feature","properties":{"能見度觀測時間":"","其他觀測時間":"","所屬單位":"中央氣象局","地點":"蘆洲氣象站","測站屬性":"氣象站","測站ID":"C0AD3","lon":121.472331,"URL":"","天氣觀測時間":"00至24小時每1小時","地址":"新北市蘆洲區三民路96號(三民高中)","觀測項目":"雨量+氣溫+風速+風向+濕度+陣風","高度":"20公尺","lat":25.086594}},{"geometry":{"coordinates":[121.445169,24.973208],"type":"Point"},"id":"C0AD4","type":"Feature","properties":{"能見度觀測時間":"","其他觀測時間":"","所屬單位":"中央氣象局","地點":"土城氣象站","測站屬性":"氣象站","測站ID":"C0AD4","lon":121.445169,"URL":"","天氣觀測時間":"00至24小時每1小時","地址":"新北市土城區金城路一段90號(土城消防分隊)","觀測項目":"雨量+氣溫+風速+風向+濕度+陣風","高度":"32公尺","lat":24.973208}},{"geometry":{"coordinates":[121.346294,24.951533],"type":"Point"},"id":"C0AD5","type":"Feature","properties":{"能見度觀測時間":"","其他觀測時間":"","所屬單位":"中央氣象局","地點":"鶯歌氣象站","測站屬性":"氣象站","測站ID":"C0AD5","lon":121.346294,"URL":"","天氣觀測時間":"00至24小時每1小時","地址":"新北市鶯歌區尖山埔路106號(鶯歌國小)","觀測項目":"雨量+氣溫+風速+風向+濕度+陣風","高度":"84公尺","lat":24.951533}},{"geometry":{"coordinates":[120.298803,22.627422],"type":"Point"},"id":"C0V49","type":"Feature","properties":{"能見度觀測時間":"","其他觀測時間":"","所屬單位":"中央氣象局","地點":"新興氣象站","測站屬性":"氣象站","測站ID":"C0V49","lon":120.298803,"URL":"","天氣觀測時間":"00至24小時每1小時","地址":"高雄市新興區大同一路231號(大同國小)","觀測項目":"雨量+氣溫+風速+風向+濕度+陣風","高度":"20公尺","lat":22.627422}},{"geometry":{"coordinates":[120.285944,22.5886],"type":"Point"},"id":"C0V50","type":"Feature","properties":{"能見度觀測時間":"","其他觀測時間":"","所屬單位":"中央氣象局","地點":"旗津氣象站","測站屬性":"氣象站","測站ID":"C0V50","lon":120.285944,"URL":"","天氣觀測時間":"00至24小時每1小時","地址":"高雄市旗津區中洲二路207號(旗津國中)","觀測項目":"雨量+氣溫+風速+風向+濕度+陣風","高度":"6公尺","lat":22.5886}},{"geometry":{"coordinates":[121.797944,24.686369],"type":"Point"},"id":"C0U78","type":"Feature","properties":{"能見度觀測時間":"","其他觀測時間":"","所屬單位":"中央氣象局","地點":"五結氣象站","測站屬性":"氣象站","測站ID":"C0U78","lon":121.797944,"URL":"","天氣觀測時間":"00至24小時每1小時","地址":"宜蘭縣五結鄉國民路1號(五結國小)","觀測項目":"雨量+氣溫+風速+風向","高度":"15公尺","lat":24.686369}},{"geometry":{"coordinates":[121.126219,23.069131],"type":"Point"},"id":"C0S76","type":"Feature","properties":{"能見度觀測時間":"","其他觀測時間":"","所屬單位":"中央氣象局","地點":"紅石氣象站","測站屬性":"氣象站","測站ID":"C0S76","lon":121.126219,"URL":"","天氣觀測時間":"00至24小時每1小時","地址":"臺東縣海端鄉紅石林道13K(紅石瞭望台旁)","觀測項目":"雨量+氣溫+風速+風向","高度":"1621公尺","lat":23.069131}},{"geometry":{"coordinates":[121.490444,24.992647],"type":"Point"},"id":"C0AG9","type":"Feature","properties":{"能見度觀測時間":"","其他觀測時間":"","所屬單位":"中央氣象局","地點":"中和氣象站","測站屬性":"氣象站","測站ID":"C0AG9","lon":121.490444,"URL":"","天氣觀測時間":"00至24小時每1小時","地址":"新北市中和區錦和路350號(錦和運動公園)","觀測項目":"雨量+氣溫+風速+風向+濕度+陣風","高度":"25公尺","lat":24.992647}},{"geometry":{"coordinates":[120.920042,24.539133],"type":"Point"},"id":"C0E82","type":"Feature","properties":{"能見度觀測時間":"","其他觀測時間":"","所屬單位":"中央氣象局","地點":"獅潭氣象站","測站屬性":"氣象站","測站ID":"C0E82","lon":120.920042,"URL":"","天氣觀測時間":"00至24小時每1小時","地址":"苗栗縣獅潭鄉(公所圖書館)","觀測項目":"雨量+氣溫+風速+風向+濕度+陣風","高度":"220公尺","lat":24.539133}},{"geometry":{"coordinates":[121.658778,25.066881],"type":"Point"},"id":"C0AH0","type":"Feature","properties":{"能見度觀測時間":"","其他觀測時間":"","所屬單位":"中央氣象局","地點":"汐止氣象站","測站屬性":"氣象站","測站ID":"C0AH0","lon":121.658778,"URL":"","天氣觀測時間":"00至24小時每1小時","地址":"新北市汐止區大同路二段394號(汐止國中)","觀測項目":"雨量+氣溫+風速+風向+濕度+陣風","高度":"38公尺","lat":25.066881}},{"geometry":{"coordinates":[120.864778,24.637056],"type":"Point"},"id":"C0E74","type":"Feature","properties":{"能見度觀測時間":"","其他觀測時間":"","所屬單位":"中央氣象局","地點":"造橋氣象站","測站屬性":"氣象站","測站ID":"C0E74","lon":120.864778,"URL":"","天氣觀測時間":"00至24小時每1小時","地址":"苗栗縣造橋鄉造橋村14鄰3號(造橋國小)","觀測項目":"雨量+氣溫+風速+風向+濕度+陣風","高度":"27公尺","lat":24.637056}},{"geometry":{"coordinates":[120.824575,24.564569],"type":"Point"},"id":"C0E75","type":"Feature","properties":{"能見度觀測時間":"","其他觀測時間":"","所屬單位":"中央氣象局","地點":"苗栗氣象站","測站屬性":"氣象站","測站ID":"C0E75","lon":120.824575,"URL":"","天氣觀測時間":"00至24小時每1小時","地址":"苗栗縣苗栗市中正路241號(建功國小)","觀測項目":"雨量+氣溫+風速+風向+濕度+陣風","高度":"62公尺","lat":24.564569}},{"geometry":{"coordinates":[120.790853,24.489681],"type":"Point"},"id":"C0E78","type":"Feature","properties":{"能見度觀測時間":"","其他觀測時間":"","所屬單位":"中央氣象局","地點":"銅鑼氣象站","測站屬性":"氣象站","測站ID":"C0E78","lon":120.790853,"URL":"","天氣觀測時間":"00至24小時每1小時","地址":"苗栗縣銅鑼鄉福興村文化街1號(銅鑼國小)","觀測項目":"雨量+氣溫+風速+風向+濕度+陣風","高度":"160公尺","lat":24.489681}},{"geometry":{"coordinates":[120.824753,24.312764],"type":"Point"},"id":"C0E79","type":"Feature","properties":{"能見度觀測時間":"","其他觀測時間":"","所屬單位":"中央氣象局","地點":"卓蘭氣象站","測站屬性":"氣象站","測站ID":"C0E79","lon":120.824753,"URL":"","天氣觀測時間":"00至24小時每1小時","地址":"苗栗縣卓蘭鎮中山路127號(卓蘭鎮公所)","觀測項目":"雨量+氣溫+風速+風向+濕度+陣風","高度":"344公尺","lat":24.312764}},{"geometry":{"coordinates":[120.7485,24.562947],"type":"Point"},"id":"C0E81","type":"Feature","properties":{"能見度觀測時間":"","其他觀測時間":"","所屬單位":"中央氣象局","地點":"西湖氣象站","測站屬性":"氣象站","測站ID":"C0E81","lon":120.7485,"URL":"","天氣觀測時間":"00至24小時每1小時","地址":"苗栗縣西湖鄉二湖村2鄰22號(僑文國小)","觀測項目":"雨量+氣溫+風速+風向+濕度+陣風","高度":"53公尺","lat":24.562947}},{"geometry":{"coordinates":[120.437669,24.041289],"type":"Point"},"id":"C0G77","type":"Feature","properties":{"能見度觀測時間":"","其他觀測時間":"","所屬單位":"中央氣象局","地點":"福興氣象站","測站屬性":"氣象站","測站ID":"C0G77","lon":120.437669,"URL":"","天氣觀測時間":"00至24小時每1小時","地址":"彰化縣福興鄉員鹿路二段270號(福興國中)","觀測項目":"雨量+氣溫+風速+風向+濕度+陣風","高度":"15公尺","lat":24.041289}},{"geometry":{"coordinates":[120.503869,24.03405],"type":"Point"},"id":"C0G78","type":"Feature","properties":{"能見度觀測時間":"","其他觀測時間":"","所屬單位":"中央氣象局","地點":"秀水氣象站","測站屬性":"氣象站","測站ID":"C0G78","lon":120.503869,"URL":"","天氣觀測時間":"00至24小時每1小時","地址":"彰化縣秀水鄉安東村中山路257號(秀水國小)","觀測項目":"雨量+氣溫+風速+風向+濕度+陣風","高度":"27公尺","lat":24.03405}},{"geometry":{"coordinates":[120.552328,24.016069],"type":"Point"},"id":"C0G79","type":"Feature","properties":{"能見度觀測時間":"","其他觀測時間":"","所屬單位":"中央氣象局","地點":"花壇氣象站","測站屬性":"氣象站","測站ID":"C0G79","lon":120.552328,"URL":"","天氣觀測時間":"00至24小時每1小時","地址":"彰化縣花壇鄉中庄村中橋街226號(華南國小)","觀測項目":"雨量+氣溫+風速+風向+濕度+陣風","高度":"27公尺","lat":24.016069}},{"geometry":{"coordinates":[120.431683,24.000394],"type":"Point"},"id":"C0G80","type":"Feature","properties":{"能見度觀測時間":"","其他觀測時間":"","所屬單位":"中央氣象局","地點":"埔鹽氣象站","測站屬性":"氣象站","測站ID":"C0G80","lon":120.431683,"URL":"","天氣觀測時間":"00至24小時每1小時","地址":"彰化縣埔鹽鄉永樂村永樂路600號(永樂國小)","觀測項目":"雨量+氣溫+風速+風向+濕度+陣風","高度":"15公尺","lat":24.000394}},{"geometry":{"coordinates":[120.525456,23.947633],"type":"Point"},"id":"C0G81","type":"Feature","properties":{"能見度觀測時間":"","其他觀測時間":"","所屬單位":"中央氣象局","地點":"埔心氣象站","測站屬性":"氣象站","測站ID":"C0G81","lon":120.525456,"URL":"","天氣觀測時間":"00至24小時每1小時","地址":"彰化縣埔心鄉舊館村員鹿路四段201號(舊館國小)","觀測項目":"雨量+氣溫+風速+風向+濕度+陣風","高度":"26公尺","lat":23.947633}},{"geometry":{"coordinates":[120.509389,23.901669],"type":"Point"},"id":"C0G82","type":"Feature","properties":{"能見度觀測時間":"","其他觀測時間":"","所屬單位":"中央氣象局","地點":"田尾氣象站","測站屬性":"氣象站","測站ID":"C0G82","lon":120.509389,"URL":"","天氣觀測時間":"00至24小時每1小時","地址":"彰化縣田尾鄉中正路二段101號(仁豐國小)","觀測項目":"雨量+氣溫+風速+風向+濕度+陣風","高度":"29公尺","lat":23.901669}},{"geometry":{"coordinates":[120.452806,23.866003],"type":"Point"},"id":"C0G83","type":"Feature","properties":{"能見度觀測時間":"","其他觀測時間":"","所屬單位":"中央氣象局","地點":"埤頭氣象站","測站屬性":"氣象站","測站ID":"C0G83","lon":120.452806,"URL":"","天氣觀測時間":"00至24小時每1小時","地址":"彰化縣埤頭鄉大湖村大湖路260號(大湖國小)","觀測項目":"雨量+氣溫+風速+風向+濕度+陣風","高度":"27公尺","lat":23.866003}},{"geometry":{"coordinates":[120.514222,23.877586],"type":"Point"},"id":"C0G84","type":"Feature","properties":{"能見度觀測時間":"","其他觀測時間":"","所屬單位":"中央氣象局","地點":"北斗氣象站","測站屬性":"氣象站","測站ID":"C0G84","lon":120.514222,"URL":"","天氣觀測時間":"00至24小時每1小時","地址":"彰化縣北斗鎮斗苑路二段150號(螺陽國小)","觀測項目":"雨量+氣溫+風速+風向+濕度+陣風","高度":"32公尺","lat":23.877586}},{"geometry":{"coordinates":[120.588261,23.856778],"type":"Point"},"id":"C0G85","type":"Feature","properties":{"能見度觀測時間":"","其他觀測時間":"","所屬單位":"中央氣象局","地點":"田中氣象站","測站屬性":"氣象站","測站ID":"C0G85","lon":120.588261,"URL":"","天氣觀測時間":"00至24小時每1小時","地址":"彰化縣田中鎮中州路一段177號(田中國小)","觀測項目":"雨量+氣溫+風速+風向+濕度+陣風","高度":"62公尺","lat":23.856778}},{"geometry":{"coordinates":[120.5862,23.897647],"type":"Point"},"id":"C0G86","type":"Feature","properties":{"能見度觀測時間":"","其他觀測時間":"","所屬單位":"中央氣象局","地點":"社頭氣象站","測站屬性":"氣象站","測站ID":"C0G86","lon":120.5862,"URL":"","天氣觀測時間":"00至24小時每1小時","地址":"彰化縣社頭鄉社斗路一段258號(社頭國小)","觀測項目":"雨量+氣溫+風速+風向+濕度+陣風","高度":"45公尺","lat":23.897647}},{"geometry":{"coordinates":[120.320025,23.922303],"type":"Point"},"id":"C0G87","type":"Feature","properties":{"能見度觀測時間":"","其他觀測時間":"","所屬單位":"中央氣象局","地點":"芳苑氣象站","測站屬性":"氣象站","測站ID":"C0G87","lon":120.320025,"URL":"","天氣觀測時間":"00至24小時每1小時","地址":"彰化縣芳苑鄉仁愛村斗苑路芳苑段211號(芳苑國中)","觀測項目":"雨量+氣溫+風速+風向+濕度+陣風","高度":"12公尺","lat":23.922303}},{"geometry":{"coordinates":[120.6173,23.810742],"type":"Point"},"id":"C0G88","type":"Feature","properties":{"能見度觀測時間":"","其他觀測時間":"","所屬單位":"中央氣象局","地點":"二水氣象站","測站屬性":"氣象站","測站ID":"C0G88","lon":120.6173,"URL":"","天氣觀測時間":"00至24小時每1小時","地址":"彰化縣二水鄉文化村119號(二水國小)","觀測項目":"雨量+氣溫+風速+風向+濕度+陣風","高度":"92公尺","lat":23.810742}},{"geometry":{"coordinates":[120.484403,24.148933],"type":"Point"},"id":"C0G89","type":"Feature","properties":{"能見度觀測時間":"","其他觀測時間":"","所屬單位":"中央氣象局","地點":"伸港氣象站","測站屬性":"氣象站","測站ID":"C0G89","lon":120.484403,"URL":"","天氣觀測時間":"00至24小時每1小時","地址":"彰化縣伸港鄉新港村和平路60號(新港國小)","觀測項目":"雨量+氣溫+風速+風向+濕度+陣風","高度":"24公尺","lat":24.148933}},{"geometry":{"coordinates":[120.588025,24.345061],"type":"Point"},"id":"C0F9K","type":"Feature","properties":{"能見度觀測時間":"","其他觀測時間":"","所屬單位":"中央氣象局","地點":"大安氣象站","測站屬性":"氣象站","測站ID":"C0F9K","lon":120.588025,"URL":"","天氣觀測時間":"00至24小時每1小時","地址":"臺中市大安區中庄里中山南路296號(大安國小)","觀測項目":"雨量+氣溫+風速+風向+濕度+陣風","高度":"30公尺","lat":24.345061}},{"geometry":{"coordinates":[120.729725,24.310436],"type":"Point"},"id":"C0F9L","type":"Feature","properties":{"能見度觀測時間":"","其他觀測時間":"","所屬單位":"中央氣象局","地點":"后里氣象站","測站屬性":"氣象站","測站ID":"C0F9L","lon":120.729725,"URL":"","天氣觀測時間":"00至24小時每1小時","地址":"臺中市后里區甲后路110號(后里國小)","觀測項目":"雨量+氣溫+風速+風向+濕度+陣風","高度":"253公尺","lat":24.310436}},{"geometry":{"coordinates":[120.720692,24.254322],"type":"Point"},"id":"C0F9M","type":"Feature","properties":{"能見度觀測時間":"","其他觀測時間":"","所屬單位":"中央氣象局","地點":"豐原氣象站","測站屬性":"氣象站","測站ID":"C0F9M","lon":120.720692,"URL":"","天氣觀測時間":"00至24小時每1小時","地址":"臺中市豐原區豐榮里12鄰新生北路155號(豐原國小)","觀測項目":"雨量+氣溫+風速+風向+濕度+陣風","高度":"230公尺","lat":24.254322}},{"geometry":{"coordinates":[120.701378,24.092464],"type":"Point"},"id":"C0F9N","type":"Feature","properties":{"能見度觀測時間":"","其他觀測時間":"","所屬單位":"中央氣象局","地點":"大里氣象站","測站屬性":"氣象站","測站ID":"C0F9N","lon":120.701378,"URL":"","天氣觀測時間":"00至24小時每1小時","地址":"臺中市大里區文化街120號(塗城國小)","觀測項目":"雨量+氣溫+風速+風向+濕度+陣風","高度":"75公尺","lat":24.092464}},{"geometry":{"coordinates":[120.703933,24.213106],"type":"Point"},"id":"C0F9O","type":"Feature","properties":{"能見度觀測時間":"","其他觀測時間":"","所屬單位":"中央氣象局","地點":"潭子氣象站","測站屬性":"氣象站","測站ID":"C0F9O","lon":120.703933,"URL":"","天氣觀測時間":"00至24小時每1小時","地址":"臺中市潭子區中山路二段435號(潭子國小)","觀測項目":"雨量+氣溫+風速+風向+濕度+陣風","高度":"175公尺","lat":24.213106}},{"geometry":{"coordinates":[120.562242,24.312297],"type":"Point"},"id":"C0F9P","type":"Feature","properties":{"能見度觀測時間":"","其他觀測時間":"","所屬單位":"中央氣象局","地點":"清水氣象站","測站屬性":"氣象站","測站ID":"C0F9P","lon":120.562242,"URL":"","天氣觀測時間":"00至24小時每1小時","地址":"臺中市清水區護岸路37號(高美國小)","觀測項目":"雨量+氣溫+風速+風向+濕度+陣風","高度":"26公尺","lat":24.312297}},{"geometry":{"coordinates":[120.705686,24.347817],"type":"Point"},"id":"C0F9Q","type":"Feature","properties":{"能見度觀測時間":"","其他觀測時間":"","所屬單位":"中央氣象局","地點":"外埔氣象站","測站屬性":"氣象站","測站ID":"C0F9Q","lon":120.705686,"URL":"","天氣觀測時間":"00至24小時每1小時","地址":"臺中市外埔區土城里土城西路55號(安定國小)","觀測項目":"雨量+氣溫+風速+風向+濕度+陣風","高度":"149公尺","lat":24.347817}},{"geometry":{"coordinates":[120.528972,24.184536],"type":"Point"},"id":"C0F9R","type":"Feature","properties":{"能見度觀測時間":"","其他觀測時間":"","所屬單位":"中央氣象局","地點":"龍井氣象站","測站屬性":"氣象站","測站ID":"C0F9R","lon":120.528972,"URL":"","天氣觀測時間":"00至24小時每1小時","地址":"臺中市龍井區西里龍門路51號(龍井國小)","觀測項目":"雨量+氣溫+風速+風向+濕度+陣風","高度":"20公尺","lat":24.184536}},{"geometry":{"coordinates":[120.624103,24.107058],"type":"Point"},"id":"C0F9S","type":"Feature","properties":{"能見度觀測時間":"","其他觀測時間":"","所屬單位":"中央氣象局","地點":"烏日氣象站","測站屬性":"氣象站","測站ID":"C0F9S","lon":120.624103,"URL":"","天氣觀測時間":"00至24小時每1小時","地址":"臺中市烏日區中山路二段196號(烏日國小)","觀測項目":"雨量+氣溫+風速+風向+濕度+陣風","高度":"43公尺","lat":24.107058}},{"geometry":{"coordinates":[120.641275,24.179494],"type":"Point"},"id":"C0F9T","type":"Feature","properties":{"能見度觀測時間":"","其他觀測時間":"","所屬單位":"中央氣象局","地點":"西屯氣象站","測站屬性":"氣象站","測站ID":"C0F9T","lon":120.641275,"URL":"","天氣觀測時間":"00至24小時每1小時","地址":"臺中市西屯區西屯路二段300號(西屯國小)","觀測項目":"雨量+氣溫+風速+風向+濕度+陣風","高度":"111公尺","lat":24.179494}},{"geometry":{"coordinates":[120.637969,24.137006],"type":"Point"},"id":"C0F9U","type":"Feature","properties":{"能見度觀測時間":"","其他觀測時間":"","所屬單位":"中央氣象局","地點":"南屯氣象站","測站屬性":"氣象站","測站ID":"C0F9U","lon":120.637969,"URL":"","天氣觀測時間":"00至24小時每1小時","地址":"臺中市南屯區黎明路一段968號(南屯國小)","觀測項目":"雨量+氣溫+風速+風向+濕度+陣風","高度":"74公尺","lat":24.137006}},{"geometry":{"coordinates":[120.815806,24.200172],"type":"Point"},"id":"C0F9V","type":"Feature","properties":{"能見度觀測時間":"","其他觀測時間":"","所屬單位":"中央氣象局","地點":"新社氣象站","測站屬性":"氣象站","測站ID":"C0F9V","lon":120.815806,"URL":"","天氣觀測時間":"00至24小時每1小時","地址":"臺中市新社區大南里興中街46號(種苗改良繁殖場)","觀測項目":"雨量+氣溫+風速+風向+濕度+陣風","高度":"525公尺","lat":24.200172}},{"geometry":{"coordinates":[121.043628,24.904794],"type":"Point"},"id":"C0D65","type":"Feature","properties":{"能見度觀測時間":"","其他觀測時間":"","所屬單位":"中央氣象局","地點":"湖口氣象站","測站屬性":"氣象站","測站ID":"C0D65","lon":121.043628,"URL":"","天氣觀測時間":"00至24小時每1小時","地址":"新竹縣湖口鄉信勢村3鄰成功路109號(湖口消防分隊)","觀測項目":"雨量+氣溫+風速+風向+濕度+陣風","高度":"97公尺","lat":24.904794}},{"geometry":{"coordinates":[121.221389,24.870056],"type":"Point"},"id":"C0C67","type":"Feature","properties":{"能見度觀測時間":"","其他觀測時間":"","所屬單位":"中央氣象局","地點":"龍潭氣象站","測站屬性":"氣象站","測站ID":"C0C67","lon":121.221389,"URL":"","天氣觀測時間":"00至24小時每1小時","地址":"桃園市龍潭區中興路726號(龍潭消防分隊)","觀測項目":"雨量+氣溫+風速+風向+濕度+陣風","高度":"250公尺","lat":24.870056}},{"geometry":{"coordinates":[120.688056,22.905944],"type":"Point"},"id":"C0V79","type":"Feature","properties":{"能見度觀測時間":"","其他觀測時間":"","所屬單位":"中央氣象局","地點":"萬山氣象站","測站屬性":"氣象站","測站ID":"C0V79","lon":120.688056,"URL":"","天氣觀測時間":"00至24小時每1小時","地址":"高雄市茂林區萬山段710地號","觀測項目":"雨量+氣溫+風速+風向+濕度+陣風","高度":"410公尺","lat":22.905944}},{"geometry":{"coordinates":[120.653053,24.439714],"type":"Point"},"id":"C0E83","type":"Feature","properties":{"能見度觀測時間":"","其他觀測時間":"","所屬單位":"中央氣象局","地點":"苑裡氣象站","測站屬性":"氣象站","測站ID":"C0E83","lon":120.653053,"URL":"","天氣觀測時間":"00至24小時每1小時","地址":"苗栗縣苑裡鎮信義路1號(苑裡鎮公所)","觀測項目":"雨量+氣溫+風速+風向+濕度+陣風","高度":"37公尺","lat":24.439714}},{"geometry":{"coordinates":[121.236339,24.388594],"type":"Point"},"id":"C0F0A","type":"Feature","properties":{"能見度觀測時間":"","其他觀測時間":"","所屬單位":"中央氣象局","地點":"雪山圈谷氣象站","測站屬性":"氣象站","測站ID":"C0F0A","lon":121.236339,"URL":"","天氣觀測時間":"00至24小時每1小時","地址":"臺中市和平區(雪山9.8K-9.9K)","觀測項目":"雨量+氣溫+風速+風向+濕度+陣風","高度":"3587公尺","lat":24.388594}},{"geometry":{"coordinates":[121.378225,23.587642],"type":"Point"},"id":"C0Z08","type":"Feature","properties":{"能見度觀測時間":"","其他觀測時間":"","所屬單位":"中央氣象局","地點":"富源氣象站","測站屬性":"氣象站","測站ID":"C0Z08","lon":121.378225,"URL":"","天氣觀測時間":"00至24小時每1小時","地址":"花蓮縣光復鄉大豐村9鄰265號(富源國中對面山腰)","觀測項目":"雨量+氣溫+風速+風向","高度":"298公尺","lat":23.587642}},{"geometry":{"coordinates":[120.668217,23.383803],"type":"Point"},"id":"C0M83","type":"Feature","properties":{"能見度觀測時間":"","其他觀測時間":"","所屬單位":"中央氣象局","地點":"山美氣象站","測站屬性":"氣象站","測站ID":"C0M83","lon":120.668217,"URL":"","天氣觀測時間":"00至24小時每1小時","地址":"嘉義縣阿里山鄉山美村(原阿里山鄉農會山美辦事處)","觀測項目":"雨量+氣溫+風速+風向+濕度+陣風","高度":"540公尺","lat":23.383803}},{"geometry":{"coordinates":[120.716647,23.389125],"type":"Point"},"id":"C0M81","type":"Feature","properties":{"能見度觀測時間":"","其他觀測時間":"","所屬單位":"中央氣象局","地點":"里佳氣象站","測站屬性":"氣象站","測站ID":"C0M81","lon":120.716647,"URL":"","天氣觀測時間":"00至24小時每1小時","地址":"嘉義縣阿里山鄉里佳村","觀測項目":"雨量+氣溫+風速+風向+濕度+陣風","高度":"1354公尺","lat":23.389125}},{"geometry":{"coordinates":[120.948578,24.618069],"type":"Point"},"id":"C0E85","type":"Feature","properties":{"能見度觀測時間":"","其他觀測時間":"","所屬單位":"中央氣象局","地點":"大河氣象站","測站屬性":"氣象站","測站ID":"C0E85","lon":120.948578,"URL":"","天氣觀測時間":"00至24小時每1小時","地址":"苗栗縣三灣鄉大河村48號(大河派出所)","觀測項目":"雨量+氣溫+風速+風向+濕度+陣風","高度":"104公尺","lat":24.618069}},{"geometry":{"coordinates":[121.091411,23.928228],"type":"Point"},"id":"C0I49","type":"Feature","properties":{"能見度觀測時間":"","其他觀測時間":"","所屬單位":"中央氣象局","地點":"萬大林道氣象站","測站屬性":"氣象站","測站ID":"C0I49","lon":121.091411,"URL":"","天氣觀測時間":"00至24小時每1小時","地址":"南投縣仁愛鄉曲冰段萬大林道7.2K附近","觀測項目":"雨量+氣溫+風速+風向+濕度+陣風","高度":"1601公尺","lat":23.928228}},{"geometry":{"coordinates":[121.173572,24.085272],"type":"Point"},"id":"C0I48","type":"Feature","properties":{"能見度觀測時間":"","其他觀測時間":"","所屬單位":"中央氣象局","地點":"梅峰氣象站","測站屬性":"氣象站","測站ID":"C0I48","lon":121.173572,"URL":"","天氣觀測時間":"00至24小時每1小時","地址":"南投縣仁愛鄉大同村仁和路215號(梅峰農場)","觀測項目":"雨量+氣溫+風速+風向+濕度+陣風","高度":"2165公尺","lat":24.085272}},{"geometry":{"coordinates":[120.086253,23.147289],"type":"Point"},"id":"C0X31","type":"Feature","properties":{"能見度觀測時間":"","其他觀測時間":"","所屬單位":"中央氣象局","地點":"七股氣象站","測站屬性":"氣象站","測站ID":"C0X31","lon":120.086253,"URL":"","天氣觀測時間":"00至24小時每1小時","地址":"臺南市七股區鹽埕237-11號(七股雷達站)","觀測項目":"雨量+氣溫+風速+風向+濕度+陣風","高度":"9公尺","lat":23.147289}},{"geometry":{"coordinates":[120.855269,21.900836],"type":"Point"},"id":"C0R62","type":"Feature","properties":{"能見度觀測時間":"","其他觀測時間":"","所屬單位":"中央氣象局","地點":"墾雷氣象站","測站屬性":"氣象站","測站ID":"C0R62","lon":120.855269,"URL":"","天氣觀測時間":"00至24小時每1小時","地址":"屏東縣恆春鎮燈塔路51巷33號(墾丁雷達站區)","觀測項目":"雨量+氣溫+風速+風向+濕度+陣風","高度":"34公尺","lat":21.900836}},{"geometry":{"coordinates":[121.175017,23.0395],"type":"Point"},"id":"C0S89","type":"Feature","properties":{"能見度觀測時間":"","其他觀測時間":"","所屬單位":"中央氣象局","地點":"關山氣象站","測站屬性":"氣象站","測站ID":"C0S89","lon":121.175017,"URL":"","天氣觀測時間":"00至24小時每1小時","地址":"臺東縣關山鎮(親水公園)","觀測項目":"雨量+氣溫+風速+風向","高度":"238公尺","lat":23.0395}},{"geometry":{"coordinates":[120.293525,22.99175],"type":"Point"},"id":"C0O99","type":"Feature","properties":{"能見度觀測時間":"","其他觀測時間":"","所屬單位":"中央氣象局","地點":"媽廟氣象站","測站屬性":"氣象站","測站ID":"C0O99","lon":120.293525,"URL":"","天氣觀測時間":"00至24小時每1小時","地址":"臺南市歸仁區中正北路三段60號(保西國小)","觀測項目":"雨量+氣溫+風速+風向+濕度+陣風","高度":"18公尺","lat":22.99175}},{"geometry":{"coordinates":[120.495008,23.079561],"type":"Point"},"id":"C0O83","type":"Feature","properties":{"能見度觀測時間":"","其他觀測時間":"","所屬單位":"中央氣象局","地點":"北寮氣象站","測站屬性":"氣象站","測站ID":"C0O83","lon":120.495008,"URL":"","天氣觀測時間":"00至24小時每1小時","地址":"臺南市南化區北寮里48-4號","觀測項目":"雨量+氣溫+風速+風向+濕度+陣風","高度":"127公尺","lat":23.079561}},{"geometry":{"coordinates":[120.259439,22.854997],"type":"Point"},"id":"C0V75","type":"Feature","properties":{"能見度觀測時間":"","其他觀測時間":"","所屬單位":"中央氣象局","地點":"路竹氣象站","測站屬性":"氣象站","測站ID":"C0V75","lon":120.259439,"URL":"","天氣觀測時間":"00至24小時每1小時","地址":"高雄市路竹區國昌路76號(路竹區公所)","觀測項目":"雨量+氣溫+風速+風向+濕度+陣風","高度":"50公尺","lat":22.854997}},{"geometry":{"coordinates":[120.614306,22.592333],"type":"Point"},"id":"C0R19","type":"Feature","properties":{"能見度觀測時間":"","其他觀測時間":"","所屬單位":"中央氣象局","地點":"赤山氣象站","測站屬性":"氣象站","測站ID":"C0R19","lon":120.614306,"URL":"","天氣觀測時間":"00至24小時每1小時","地址":"屏東縣萬巒鄉建興路40號(赤山國小)","觀測項目":"雨量+氣溫+風速+風向+濕度+陣風","高度":"32公尺","lat":22.592333}},{"geometry":{"coordinates":[121.508111,25.01125],"type":"Point"},"id":"C0AH1","type":"Feature","properties":{"能見度觀測時間":"","其他觀測時間":"","所屬單位":"中央氣象局","地點":"永和氣象站","測站屬性":"氣象站","測站ID":"C0AH1","lon":121.508111,"URL":"","天氣觀測時間":"00至24小時每1小時","地址":"新北市永和區永平路205號(永平高中)","觀測項目":"雨量+氣溫+風速+風向+濕度+陣風","高度":"30公尺","lat":25.01125}},{"geometry":{"coordinates":[120.318925,23.75555],"type":"Point"},"id":"C0K25","type":"Feature","properties":{"能見度觀測時間":"","其他觀測時間":"","所屬單位":"中央氣象局","地點":"崙背氣象站","測站屬性":"氣象站","測站ID":"C0K25","lon":120.318925,"URL":"","天氣觀測時間":"00至24小時每1小時","地址":"雲林縣崙背鄉阿勸村阿勸段487號(阿勸農場)","觀測項目":"雨量+氣溫+風速+風向+濕度+陣風","高度":"59公尺","lat":23.75555}},{"geometry":{"coordinates":[120.466769,22.975481],"type":"Point"},"id":"C0V36","type":"Feature","properties":{"能見度觀測時間":"","其他觀測時間":"","所屬單位":"中央氣象局","地點":"內門氣象站","測站屬性":"氣象站","測站ID":"C0V36","lon":120.466769,"URL":"","天氣觀測時間":"00至24小時每1小時","地址":"高雄市內門區木柵里木柵3號(木柵國小)","觀測項目":"雨量+氣溫+風速+風向+濕度+陣風","高度":"94公尺","lat":22.975481}},{"geometry":{"coordinates":[120.664944,22.588194],"type":"Point"},"id":"C0R60","type":"Feature","properties":{"能見度觀測時間":"","其他觀測時間":"","所屬單位":"中央氣象局","地點":"舊泰武氣象站","測站屬性":"氣象站","測站ID":"C0R60","lon":120.664944,"URL":"","天氣觀測時間":"00至24小時每1小時","地址":"屏東縣泰武鄉泰武村良武巷101號(舊泰武村老人活動中心)","觀測項目":"雨量+氣溫+風速+風向+濕度+陣風","高度":"766公尺","lat":22.588194}},{"geometry":{"coordinates":[120.494072,22.660269],"type":"Point"},"id":"C0R17","type":"Feature","properties":{"能見度觀測時間":"","其他觀測時間":"","所屬單位":"中央氣象局","地點":"屏東氣象站","測站屬性":"氣象站","測站ID":"C0R17","lon":120.494072,"URL":"","天氣觀測時間":"00至24小時每1小時","地址":"屏東縣屏東市復興路245號(台糖屏東區處場區)","觀測項目":"雨量+氣溫+風速+風向+濕度+陣風","高度":"26公尺","lat":22.660269}},{"geometry":{"coordinates":[120.494589,22.779194],"type":"Point"},"id":"C0R59","type":"Feature","properties":{"能見度觀測時間":"","其他觀測時間":"","所屬單位":"中央氣象局","地點":"里港氣象站","測站屬性":"氣象站","測站ID":"C0R59","lon":120.494589,"URL":"","天氣觀測時間":"00至24小時每1小時","地址":"屏東縣里港鄉永春村中山路104號(里港鄉公所)","觀測項目":"雨量+氣溫+風速+風向+濕度+陣風","高度":"72公尺","lat":22.779194}},{"geometry":{"coordinates":[120.633583,22.997889],"type":"Point"},"id":"C0V80","type":"Feature","properties":{"能見度觀測時間":"","其他觀測時間":"","所屬單位":"中央氣象局","地點":"六龜氣象站","測站屬性":"氣象站","測站ID":"C0V80","lon":120.633583,"URL":"","天氣觀測時間":"00至24小時每1小時","地址":"高雄市六龜區民治路9號(六龜消防隊)","觀測項目":"雨量+氣溫+風速+風向+濕度+陣風","高度":"256公尺","lat":22.997889}},{"geometry":{"coordinates":[120.355528,22.804194],"type":"Point"},"id":"C0V40","type":"Feature","properties":{"能見度觀測時間":"","其他觀測時間":"","所屬單位":"中央氣象局","地點":"阿公店氣象站","測站屬性":"氣象站","測站ID":"C0V40","lon":120.355528,"URL":"","天氣觀測時間":"00至24小時每1小時","地址":"高雄市燕巢區西燕里工程路1號(阿公店水庫)","觀測項目":"雨量+氣溫+風速+風向+濕度+陣風","高度":"56公尺","lat":22.804194}},{"geometry":{"coordinates":[121.780794,25.07125],"type":"Point"},"id":"C0AH3","type":"Feature","properties":{"能見度觀測時間":"","其他觀測時間":"","所屬單位":"中央氣象局","地點":"五分山氣象站","測站屬性":"氣象站","測站ID":"C0AH3","lon":121.780794,"URL":"","天氣觀測時間":"00至24小時每1小時","地址":"新北市瑞芳區靜安路四段1巷1號(五分山雷達站旁)","觀測項目":"雨量+氣溫+風速+風向+濕度+陣風","高度":"755公尺","lat":25.07125}},{"geometry":{"coordinates":[120.952425,23.972169],"type":"Point"},"id":"C0H89","type":"Feature","properties":{"能見度觀測時間":"","其他觀測時間":"","所屬單位":"中央氣象局","地點":"埔里氣象站","測站屬性":"氣象站","測站ID":"C0H89","lon":120.952425,"URL":"","天氣觀測時間":"00至24小時每1小時","地址":"南投縣埔里鎮大城里大城路169號(縣立大成國中)","觀測項目":"雨量+氣溫+風速+風向+濕度+陣風","高度":"440公尺","lat":23.972169}},{"geometry":{"coordinates":[114.364286,10.370203],"type":"Point"},"id":46902,"type":"Feature","properties":{"能見度觀測時間":"00至24時每1小時","其他觀測時間":"00至24小時每15分鐘","所屬單位":"中央氣象局","地點":"南沙島氣象站","測站屬性":"氣象站","測站ID":46902,"lon":114.364286,"URL":"","天氣觀測時間":"00至24時每1小時","地址":"高雄市旗津區819號(太平島)","觀測項目":"雨量+氣壓+氣溫+風速+風向+濕度+陣風+天氣+能見度","高度":"4.5公尺","lat":10.370203}},{"geometry":{"coordinates":[120.217717,23.798783],"type":"Point"},"id":"A0K42","type":"Feature","properties":{"能見度觀測時間":"","其他觀測時間":"","所屬單位":"中央氣象局","地點":"麥寮氣象站","測站屬性":"氣象站","測站ID":"A0K42","lon":120.217717,"URL":"","天氣觀測時間":"00至24小時每15分鐘","地址":"雲林縣麥寮鄉臺塑工業園區1號","觀測項目":"雨量+氣溫+風速+風向+濕度+陣風","高度":"22公尺","lat":23.798783}},{"geometry":{"coordinates":[120.194228,23.010394],"type":"Point"},"id":"C0X10","type":"Feature","properties":{"能見度觀測時間":"","其他觀測時間":"","所屬單位":"中央氣象局","地點":"臺南市北區氣象站","測站屬性":"氣象站","測站ID":"C0X10","lon":120.194228,"URL":"","天氣觀測時間":"00至24小時每1小時","地址":"臺南市北區文賢路678號(和緯消防分隊)","觀測項目":"雨量+氣溫+風速+風向+濕度+陣風","高度":"10公尺","lat":23.010394}},{"geometry":{"coordinates":[120.188378,22.961189],"type":"Point"},"id":"C0X11","type":"Feature","properties":{"能見度觀測時間":"","其他觀測時間":"","所屬單位":"中央氣象局","地點":"臺南市南區氣象站","測站屬性":"氣象站","測站ID":"C0X11","lon":120.188378,"URL":"","天氣觀測時間":"00至24小時每1小時","地址":"臺南市南區明興路2號(南區區公所)","觀測項目":"雨量+氣溫+風速+風向+濕度+陣風","高度":"20公尺","lat":22.961189}},{"geometry":{"coordinates":[120.369317,22.959547],"type":"Point"},"id":"C0O96","type":"Feature","properties":{"能見度觀測時間":"","其他觀測時間":"","所屬單位":"中央氣象局","地點":"崎頂氣象站","測站屬性":"氣象站","測站ID":"C0O96","lon":120.369317,"URL":"","天氣觀測時間":"00至24小時每1小時","地址":"臺南市龍崎區中坑里5鄰13號","觀測項目":"雨量+氣溫+風速+風向+濕度+陣風","高度":"112公尺","lat":22.959547}},{"geometry":{"coordinates":[120.152181,22.993161],"type":"Point"},"id":"C0X19","type":"Feature","properties":{"能見度觀測時間":"","其他觀測時間":"","所屬單位":"中央氣象局","地點":"安平氣象站","測站屬性":"氣象站","測站ID":"C0X19","lon":120.152181,"URL":"","天氣觀測時間":"00至24小時每1小時","地址":"臺南市安平區城平路2號(台江國家公園管理處)","觀測項目":"雨量+氣溫+風速+風向+濕度+陣風","高度":"10公尺","lat":22.993161}},{"geometry":{"coordinates":[120.446797,22.738578],"type":"Point"},"id":"C0V35","type":"Feature","properties":{"能見度觀測時間":"","其他觀測時間":"","所屬單位":"中央氣象局","地點":"溪埔氣象站","測站屬性":"氣象站","測站ID":"C0V35","lon":120.446797,"URL":"","天氣觀測時間":"00至24小時每1小時","地址":"高雄市大樹區溪埔里之台21線285K-286K間","觀測項目":"雨量+氣溫+風速+風向+濕度+陣風","高度":"36公尺","lat":22.738578}},{"geometry":{"coordinates":[120.248611,23.183289],"type":"Point"},"id":"C0X12","type":"Feature","properties":{"能見度觀測時間":"","其他觀測時間":"","所屬單位":"中央氣象局","地點":"麻豆氣象站","測站屬性":"氣象站","測站ID":"C0X12","lon":120.248611,"URL":"","天氣觀測時間":"00至24小時每1小時","地址":"臺南市麻豆區興國路9號(麻豆消防分隊)","觀測項目":"雨量+氣溫+風速+風向+濕度+陣風","高度":"28公尺","lat":23.183289}},{"geometry":{"coordinates":[120.315422,23.193217],"type":"Point"},"id":"C0X13","type":"Feature","properties":{"能見度觀測時間":"","其他觀測時間":"","所屬單位":"中央氣象局","地點":"官田氣象站","測站屬性":"氣象站","測站ID":"C0X13","lon":120.315422,"URL":"","天氣觀測時間":"00至24小時每1小時","地址":"臺南市官田區中山路一段132號(官田區公所)","觀測項目":"雨量+氣溫+風速+風向+濕度+陣風","高度":"27公尺","lat":23.193217}},{"geometry":{"coordinates":[120.203108,23.125608],"type":"Point"},"id":"C0X14","type":"Feature","properties":{"能見度觀測時間":"","其他觀測時間":"","所屬單位":"中央氣象局","地點":"西港氣象站","測站屬性":"氣象站","測站ID":"C0X14","lon":120.203108,"URL":"","天氣觀測時間":"00至24小時每1小時","地址":"臺南市西港區中山路450號(西港消防分隊)","觀測項目":"雨量+氣溫+風速+風向+濕度+陣風","高度":"17公尺","lat":23.125608}},{"geometry":{"coordinates":[120.227839,23.102614],"type":"Point"},"id":"C0X15","type":"Feature","properties":{"能見度觀測時間":"","其他觀測時間":"","所屬單位":"中央氣象局","地點":"安定氣象站","測站屬性":"氣象站","測站ID":"C0X15","lon":120.227839,"URL":"","天氣觀測時間":"00至24小時每1小時","地址":"臺南市安定區南安村油車33之11號(安定消防分隊)","觀測項目":"雨量+氣溫+風速+風向+濕度+陣風","高度":"18公尺","lat":23.102614}},{"geometry":{"coordinates":[120.257689,22.968258],"type":"Point"},"id":"C0X16","type":"Feature","properties":{"能見度觀測時間":"","其他觀測時間":"","所屬單位":"中央氣象局","地點":"仁德氣象站","測站屬性":"氣象站","測站ID":"C0X16","lon":120.257689,"URL":"","天氣觀測時間":"00至24小時每1小時","地址":"臺南市仁德區仁義路432號(仁德消防分隊)","觀測項目":"雨量+氣溫+風速+風向+濕度+陣風","高度":"26公尺","lat":22.968258}},{"geometry":{"coordinates":[120.327797,22.963017],"type":"Point"},"id":"C0X17","type":"Feature","properties":{"能見度觀測時間":"","其他觀測時間":"","所屬單位":"中央氣象局","地點":"關廟氣象站","測站屬性":"氣象站","測站ID":"C0X17","lon":120.327797,"URL":"","天氣觀測時間":"00至24小時每1小時","地址":"臺南市關廟區中正路998號(關廟區公所)","觀測項目":"雨量+氣溫+風速+風向+濕度+陣風","高度":"50公尺","lat":22.963017}},{"geometry":{"coordinates":[120.363253,23.0757],"type":"Point"},"id":"C0X18","type":"Feature","properties":{"能見度觀測時間":"","其他觀測時間":"","所屬單位":"中央氣象局","地點":"山上氣象站","測站屬性":"氣象站","測站ID":"C0X18","lon":120.363253,"URL":"","天氣觀測時間":"00至24小時每1小時","地址":"臺南市山上區豐德里隙子口5-1號(中油豐德供油中心)","觀測項目":"雨量+氣溫+風速+風向+濕度+陣風","高度":"62公尺","lat":23.0757}},{"geometry":{"coordinates":[120.408522,23.056758],"type":"Point"},"id":"C0X20","type":"Feature","properties":{"能見度觀測時間":"","其他觀測時間":"","所屬單位":"中央氣象局","地點":"左鎮氣象站","測站屬性":"氣象站","測站ID":"C0X20","lon":120.408522,"URL":"","天氣觀測時間":"00至24小時每1小時","地址":"臺南市左鎮區中正里171號之4(左鎮區公所)","觀測項目":"雨量+氣溫+風速+風向+濕度+陣風","高度":"61公尺","lat":23.056758}},{"geometry":{"coordinates":[120.806089,23.222403],"type":"Point"},"id":"C0V21","type":"Feature","properties":{"能見度觀測時間":"","其他觀測時間":"","所屬單位":"中央氣象局","地點":"復興氣象站","測站屬性":"氣象站","測站ID":"C0V21","lon":120.806089,"URL":"","天氣觀測時間":"00至24小時每1小時","地址":"高雄市桃源區復興里復興巷1鄰15號","觀測項目":"雨量+氣溫+風速+風向+濕度+陣風","高度":"700公尺","lat":23.222403}},{"geometry":{"coordinates":[121.04748611,25.00674444],"type":"Point"},"id":46705,"type":"Feature","properties":{"能見度觀測時間":"05至20時每3小時","其他觀測時間":"00至24小時每15分鐘","所屬單位":"中央氣象局","地點":"新屋氣象站","測站屬性":"氣象站","測站ID":46705,"lon":121.04748611,"URL":"","天氣觀測時間":"05至20時每3小時","地址":"桃園市新屋區東興路二段946號","觀測項目":"雨量+氣壓+氣溫+風速+風向+濕度+陣風+天氣+紫外線+能見度","高度":"20.6公尺","lat":25.00674444}},{"geometry":{"coordinates":[120.600806,22.826389],"type":"Point"},"id":"C0R47","type":"Feature","properties":{"能見度觀測時間":"","其他觀測時間":"","所屬單位":"中央氣象局","地點":"高樹氣象站","測站屬性":"氣象站","測站ID":"C0R47","lon":120.600806,"URL":"","天氣觀測時間":"00至24小時每1小時","地址":"屏東縣高樹鄉興中路329號(高樹鄉公所)","觀測項目":"雨量+氣溫+風速+風向+濕度+陣風","高度":"103公尺","lat":22.826389}},{"geometry":{"coordinates":[120.542622,22.693128],"type":"Point"},"id":"C0R48","type":"Feature","properties":{"能見度觀測時間":"","其他觀測時間":"","所屬單位":"中央氣象局","地點":"長治氣象站","測站屬性":"氣象站","測站ID":"C0R48","lon":120.542622,"URL":"","天氣觀測時間":"00至24小時每1小時","地址":"屏東縣長治鄉德成村中興路572-1號(長治消防分隊)","觀測項目":"雨量+氣溫+風速+風向+濕度+陣風","高度":"57公尺","lat":22.693128}},{"geometry":{"coordinates":[120.490503,22.7405],"type":"Point"},"id":"C0R49","type":"Feature","properties":{"能見度觀測時間":"","其他觀測時間":"","所屬單位":"中央氣象局","地點":"九如氣象站","測站屬性":"氣象站","測站ID":"C0R49","lon":120.490503,"URL":"","天氣觀測時間":"00至24小時每1小時","地址":"屏東縣九如鄉九如路二段416號(九如鄉公所)","觀測項目":"雨量+氣溫+風速+風向+濕度+陣風","高度":"49公尺","lat":22.7405}},{"geometry":{"coordinates":[120.544008,22.584917],"type":"Point"},"id":"C0R50","type":"Feature","properties":{"能見度觀測時間":"","其他觀測時間":"","所屬單位":"中央氣象局","地點":"竹田氣象站","測站屬性":"氣象站","測站ID":"C0R50","lon":120.544008,"URL":"","天氣觀測時間":"00至24小時每1小時","地址":"屏東縣竹田鄉中正路123號(竹田鄉公所)","觀測項目":"雨量+氣溫+風速+風向+濕度+陣風","高度":"32公尺","lat":22.584917}},{"geometry":{"coordinates":[120.490394,22.587775],"type":"Point"},"id":"C0R51","type":"Feature","properties":{"能見度觀測時間":"","其他觀測時間":"","所屬單位":"中央氣象局","地點":"萬丹氣象站","測站屬性":"氣象站","測站ID":"C0R51","lon":120.490394,"URL":"","天氣觀測時間":"00至24小時每1小時","地址":"屏東縣萬丹鄉萬安村和平東路69號(萬丹消防分隊)","觀測項目":"雨量+氣溫+風速+風向+濕度+陣風","高度":"31公尺","lat":22.587775}},{"geometry":{"coordinates":[120.506914,22.514781],"type":"Point"},"id":"C0R52","type":"Feature","properties":{"能見度觀測時間":"","其他觀測時間":"","所屬單位":"中央氣象局","地點":"崁頂氣象站","測站屬性":"氣象站","測站ID":"C0R52","lon":120.506914,"URL":"","天氣觀測時間":"00至24小時每1小時","地址":"屏東縣崁頂鄉崁頂村興農路20之10號(崁頂消防分隊)","觀測項目":"雨量+氣溫+風速+風向+濕度+陣風","高度":"18公尺","lat":22.514781}},{"geometry":{"coordinates":[120.509983,22.430836],"type":"Point"},"id":"C0R53","type":"Feature","properties":{"能見度觀測時間":"","其他觀測時間":"","所屬單位":"中央氣象局","地點":"林邊氣象站","測站屬性":"氣象站","測站ID":"C0R53","lon":120.509983,"URL":"","天氣觀測時間":"00至24小時每1小時","地址":"屏東縣林邊鄉光林村和平路45號(林邊鄉衛生所)","觀測項目":"雨量+氣溫+風速+風向+濕度+陣風","高度":"16公尺","lat":22.430836}},{"geometry":{"coordinates":[120.552375,22.419456],"type":"Point"},"id":"C0R54","type":"Feature","properties":{"能見度觀測時間":"","其他觀測時間":"","所屬單位":"中央氣象局","地點":"佳冬氣象站","測站屬性":"氣象站","測站ID":"C0R54","lon":120.552375,"URL":"","天氣觀測時間":"00至24小時每1小時","地址":"屏東縣佳冬鄉佳昌路2號(佳冬鄉公所)","觀測項目":"雨量+氣溫+風速+風向+濕度+陣風","高度":"17公尺","lat":22.419456}},{"geometry":{"coordinates":[120.582894,22.467947],"type":"Point"},"id":"C0R55","type":"Feature","properties":{"能見度觀測時間":"","其他觀測時間":"","所屬單位":"中央氣象局","地點":"新埤氣象站","測站屬性":"氣象站","測站ID":"C0R55","lon":120.582894,"URL":"","天氣觀測時間":"00至24小時每1小時","地址":"屏東縣新埤鄉民眾路103號(新埤消防分隊)","觀測項目":"雨量+氣溫+風速+風向+濕度+陣風","高度":"38公尺","lat":22.467947}},{"geometry":{"coordinates":[120.461558,22.5434],"type":"Point"},"id":"C0R56","type":"Feature","properties":{"能見度觀測時間":"","其他觀測時間":"","所屬單位":"中央氣象局","地點":"新園氣象站","測站屬性":"氣象站","測站ID":"C0R56","lon":120.461558,"URL":"","天氣觀測時間":"00至24小時每1小時","地址":"屏東縣新園鄉仙吉村店口路116號(新園消防分隊)","觀測項目":"雨量+氣溫+風速+風向+濕度+陣風","高度":"22公尺","lat":22.5434}},{"geometry":{"coordinates":[120.527192,22.650775],"type":"Point"},"id":"C0R57","type":"Feature","properties":{"能見度觀測時間":"","其他觀測時間":"","所屬單位":"中央氣象局","地點":"麟洛氣象站","測站屬性":"氣象站","測站ID":"C0R57","lon":120.527192,"URL":"","天氣觀測時間":"00至24小時每1小時","地址":"屏東縣麟洛鄉中山路158號(麟洛鄉公所)","觀測項目":"雨量+氣溫+風速+風向+濕度+陣風","高度":"37公尺","lat":22.650775}},{"geometry":{"coordinates":[120.502736,22.485911],"type":"Point"},"id":"C0R58","type":"Feature","properties":{"能見度觀測時間":"","其他觀測時間":"","所屬單位":"中央氣象局","地點":"南州氣象站","測站屬性":"氣象站","測站ID":"C0R58","lon":120.502736,"URL":"","天氣觀測時間":"00至24小時每1小時","地址":"屏東縣南州鄉溪南村人和路241號(南州消防分隊)","觀測項目":"雨量+氣溫+風速+風向+濕度+陣風","高度":"10公尺","lat":22.485911}},{"geometry":{"coordinates":[120.267211,22.760558],"type":"Point"},"id":"C0V61","type":"Feature","properties":{"能見度觀測時間":"","其他觀測時間":"","所屬單位":"中央氣象局","地點":"梓官氣象站","測站屬性":"氣象站","測站ID":"C0V61","lon":120.267211,"URL":"","天氣觀測時間":"00至24小時每1小時","地址":"高雄市梓官區梓官路258號(梓官區公所)","觀測項目":"雨量+氣溫+風速+風向+濕度+陣風","高度":"22公尺","lat":22.760558}},{"geometry":{"coordinates":[120.236856,22.82315],"type":"Point"},"id":"C0V62","type":"Feature","properties":{"能見度觀測時間":"","其他觀測時間":"","所屬單位":"中央氣象局","地點":"永安氣象站","測站屬性":"氣象站","測站ID":"C0V62","lon":120.236856,"URL":"","天氣觀測時間":"00至24小時每1小時","地址":"高雄市永安區永安路32號(永安消防分隊)","觀測項目":"雨量+氣溫+風速+風向+濕度+陣風","高度":"18公尺","lat":22.82315}},{"geometry":{"coordinates":[120.182608,22.906642],"type":"Point"},"id":"C0V63","type":"Feature","properties":{"能見度觀測時間":"","其他觀測時間":"","所屬單位":"中央氣象局","地點":"茄萣氣象站","測站屬性":"氣象站","測站ID":"C0V63","lon":120.182608,"URL":"","天氣觀測時間":"00至24小時每1小時","地址":"高雄市茄萣區濱海路四段27號(茄萣區公所)","觀測項目":"雨量+氣溫+風速+風向+濕度+陣風","高度":"19公尺","lat":22.906642}},{"geometry":{"coordinates":[120.2445,22.887139],"type":"Point"},"id":"C0V64","type":"Feature","properties":{"能見度觀測時間":"","其他觀測時間":"","所屬單位":"中央氣象局","地點":"湖內氣象站","測站屬性":"氣象站","測站ID":"C0V64","lon":120.2445,"URL":"","天氣觀測時間":"00至24小時每1小時","地址":"高雄市湖內區中山路一段290-1號(湖街派出所)","觀測項目":"雨量+氣溫+風速+風向+濕度+陣風","高度":"35公尺","lat":22.887139}},{"geometry":{"coordinates":[120.246361,22.783806],"type":"Point"},"id":"C0V65","type":"Feature","properties":{"能見度觀測時間":"","其他觀測時間":"","所屬單位":"中央氣象局","地點":"彌陀氣象站","測站屬性":"氣象站","測站ID":"C0V65","lon":120.246361,"URL":"","天氣觀測時間":"00至24小時每1小時","地址":"高雄市彌陀區中正北路7號(彌陀消防分隊)","觀測項目":"雨量+氣溫+風速+風向+濕度+陣風","高度":"28公尺","lat":22.783806}},{"geometry":{"coordinates":[120.294958,22.797078],"type":"Point"},"id":"C0V66","type":"Feature","properties":{"能見度觀測時間":"","其他觀測時間":"","所屬單位":"中央氣象局","地點":"岡山氣象站","測站屬性":"氣象站","測站ID":"C0V66","lon":120.294958,"URL":"","天氣觀測時間":"00至24小時每1小時","地址":"高雄市岡山區岡山路341號(岡山地政事務所)","觀測項目":"雨量+氣溫+風速+風向+濕度+陣風","高度":"25公尺","lat":22.797078}},{"geometry":{"coordinates":[120.286,22.71975],"type":"Point"},"id":"C0V67","type":"Feature","properties":{"能見度觀測時間":"","其他觀測時間":"","所屬單位":"中央氣象局","地點":"楠梓氣象站","測站屬性":"氣象站","測站ID":"C0V67","lon":120.286,"URL":"","天氣觀測時間":"00至24小時每1小時","地址":"高雄市楠梓區德民路1010號(國昌國中)","觀測項目":"雨量+氣溫+風速+風向+濕度+陣風","高度":"20公尺","lat":22.71975}},{"geometry":{"coordinates":[120.347722,22.701083],"type":"Point"},"id":"C0V68","type":"Feature","properties":{"能見度觀測時間":"","其他觀測時間":"","所屬單位":"中央氣象局","地點":"仁武氣象站","測站屬性":"氣象站","測站ID":"C0V68","lon":120.347722,"URL":"","天氣觀測時間":"00至24小時每1小時","地址":"高雄市仁武區中正路133號(仁武區公所)","觀測項目":"雨量+氣溫+風速+風向+濕度+陣風","高度":"40公尺","lat":22.701083}},{"geometry":{"coordinates":[120.275575,22.623325],"type":"Point"},"id":"C0V69","type":"Feature","properties":{"能見度觀測時間":"","其他觀測時間":"","所屬單位":"中央氣象局","地點":"鼓山氣象站","測站屬性":"氣象站","測站ID":"C0V69","lon":120.275575,"URL":"","天氣觀測時間":"00至24小時每1小時","地址":"高雄市鼓山區臨海一路61-1號(鼓山消防分隊)","觀測項目":"雨量+氣溫+風速+風向+濕度+陣風","高度":"30公尺","lat":22.623325}},{"geometry":{"coordinates":[120.311233,22.645017],"type":"Point"},"id":"C0V70","type":"Feature","properties":{"能見度觀測時間":"","其他觀測時間":"","所屬單位":"中央氣象局","地點":"三民氣象站","測站屬性":"氣象站","測站ID":"C0V70","lon":120.311233,"URL":"","天氣觀測時間":"00至24小時每1小時","地址":"高雄市三民區十全一路88號(十全消防分隊)","觀測項目":"雨量+氣溫+風速+風向+濕度+陣風","高度":"24公尺","lat":22.645017}},